[
{"company":"AWeber Communications","url":"http://www.aweber.jobs/","webSiteUrl":"http://www.aweber.com/","address":"1100 Manor Drive, Chalfont PA, 18914","geo":{"longitude":-75.222586,"latitude":40.268983},"positions":[{"title":"Front End Engineer"},{"title":"QA Automation Engineer"},{"title":"Senior Operations Engineer"},{"title":"Senior Software Engineer"},{"title":"Software Engineer"},{"title":"Team Lead - Platform Services Engineering"},{"title":"Team Lead - Web Experience"},{"title":"Technical Project Manager"}],"state":"PA","county":"Bucks"},
{"company":"BOLT ON TECHNOLOGY","url":"http://boltontechnology.com/category/careers/","webSiteUrl":"http://www.boltontechnology.com/","address":"1105 Industrial Blvd., Southampton, PA 18966-4160","geo":{"longitude":-75.040384,"latitude":40.16228},"positions":[{"title":"Customer Support Technician"},{"title":"Microsoft Software Developer"}],"state":"PA","county":"Bucks"},
{"company":"BrickSimple LLC","url":"http://bricksimple.com/","webSiteUrl":"http://bricksimple.com/","address":"22 S Main St, Doylestown, PA 18901","geo":{"longitude":-75.1301983333,"latitude":40.309501},"positions":[{"title":"Web Application Developer"},{"title":"Mobile Application Developer"}],"state":"PA","county":"Bucks"},
{"company":"Garfield Group","url":"http://garfieldgroup.com/careers","webSiteUrl":"http://garfieldgroup.com/","address":"60 Blacksmith Road, Newtown PA 18940","geo":{"longitude":-74.915183875,"latitude":40.222709625},"positions":[{"title":"Copywriter"},{"title":"Art Director"},{"title":"Web Developer"},{"title":"Copywriter Intern"},{"title":"Graphic Design Intern"}],"state":"PA","county":"Bucks"},
{"company":"Inverse Paradox","url":"https://www.inverseparadox.com/careers/","webSiteUrl":"https://www.inverseparadox.com/","address":"133 Bellevue Ave., Penndel, PA 19047","geo":{"longitude":-74.9120337959,"latitude":40.1584053469},"positions":[{"title":"PHP Developer â€“ Magento"},{"title":"WordPress Developer"}],"state":"PA","county":"Bucks"},
{"company":"MeetMe","url":"http://www.meetme.com/apps/careers#careers-position","webSiteUrl":"http://www.meetme.com/","address":"100 Union Square Drive, New Hope, PA","geo":{"longitude":-75.131903,"latitude":40.314},"positions":[{"title":"Big Data Engineer"},{"title":"Software Architect, API"},{"title":"Sr. Android Engineer / Architect"},{"title":"Sr. iOS Developer / Architect"},{"title":"Sr. Software Developer (API)"},{"title":"QA Developer (Automation)"},{"title":"Sr. DevOps Engineer (Remote)"},{"title":"Website Content Review & Customer Support Specialist"}],"state":"PA","county":"Bucks"},
{"company":"Pedrera Philadelphia Web Development","url":"http://pedrera.com/about-us/careers","webSiteUrl":"http://pedrera.com/","address":"100 Mechanics Street, Doylestown, PA 18901","geo":{"longitude":-75.1289168909,"latitude":40.3136617818},"positions":[{"title":"Web Developer"}],"state":"PA","county":"Bucks"},
{"company":"Tonic Design Co","url":"http://www.tonicdesign.com/jobs/","webSiteUrl":"http://www.tonicdesign.com/","address":"201 S State St; Suite 2B Newtown PA 18940","geo":{"longitude":-74.937063,"latitude":40.226642},"positions":[{"title":".NET/C# Developer"},{"title":"Experience Design Lead"},{"title":"Mobile Developers - Android & iOS"},{"title":"Senior User Experience Designer (UX)"}],"state":"PA","county":"Bucks"}
]