[
{"company":"AboutOne","url":"http://www.aboutone.com/jobs/","webSiteUrl":"http://www.aboutone.com/","address":"26 Raffaela Drive, Malvern, PA 19355","geo":{"longitude":-75.5103515,"latitude":40.039942},"positions":[{"title":"SENIOR iOS DEVELOPER"},{"title":"QUALITY ASSURANCE ENGINEER"},{"title":"SENIOR SOFTWARE ENGINEER"}],"state":"PA","county":"Chester"},
{"company":"Boomi","url":"http://www.boomi.com/company/careers","webSiteUrl":"http://www.boomi.com/","address":"801 Cassatt Road Suite 111 Berwyn, PA 19312","geo":{"longitude":-75.456169,"latitude":40.062366},"positions":[{"title":"Software Develoment Engineer"},{"title":"Software Engineer Director"},{"title":"Software Engineer Java"},{"title":"Software QA Staff Engineer"}],"state":"PA","county":"Chester"},
{"company":"Deacom, Inc","url":"http://deacom.com/ViewPage/21/deacom-inc-company-careers","webSiteUrl":"http://deacom.com/","address":"950 West Valley Road, Suite 3000, Wayne, PA 19087","geo":{"longitude":-75.427966,"latitude":40.067907},"positions":[{"title":"Inside Sales Rep"},{"title":"Senior ERP Product Specialist"},{"title":"Software Developer"},{"title":"ERP Product Specialist"}],"state":"PA","county":"Chester"},
{"company":"Evolve IP","url":"http://www.evolveip.net/about/careers","webSiteUrl":"http://www.evolveip.net/","address":"989 Old Eagle School Rd, Wayne, PA 19087","geo":{"longitude":-75.41092975,"latitude":40.076770625},"positions":[{"title":"Project Manager"},{"title":"Platform Engineer, Cloud Computing"}],"state":"PA","county":"Chester"},
{"company":"iPipeline","url":"https://ipipeline-orspartners.icims.com/jobs/intro?hashed=-435738742&mobile=false&width=889&height=500&bga=true&needsRedirect=false&jan1offset=-300&jun1offset=-240","webSiteUrl":"http://www.ipipeline.com/","address":"222 Valley Creek Boulevard, Suite 300, Exton, PA 19341","geo":{"longitude":-75.597482,"latitude":40.03875},"positions":[{"title":"Application Support Engineer"},{"title":"Actuarial Developer"},{"title":"Application Developer"},{"title":"Application Support Analyst"}],"state":"PA","county":"Chester"},
{"company":"Medecision","url":"https://careers-medecision.icims.com/jobs/intro?hashed=-435743548","webSiteUrl":"http://www.medecision.com/","address":"550 E Swedesford Rd #220, Wayne, PA 19087","geo":{"longitude":-75.4241920791,"latitude":40.0755407626},"positions":[{"title":"Director, Data Management"},{"title":"Senior Director, Customer Marketing"},{"title":"Solution Architect, Senior"}],"state":"PA","county":"Chester"},
{"company":"Momentum Dynamics","url":"http://www.momentumdynamics.com/momentum-dynamics.html#careers","webSiteUrl":"http://www.momentumdynamics.com/","address":"3 Pennsylvania Avenue, Malvern, PA 19355","geo":{"longitude":-75.5168733857,"latitude":40.0374198571},"positions":[{"title":"Power Electronics Engineers"},{"title":"Senior Electronics Engineers"},{"title":"Electronics Engineers"},{"title":"Electronics Technicians"},{"title":"Embedded Software Engineers"}],"state":"PA","county":"Chester"},
{"company":"NRG Edge, LLC","url":"http://nrg-edge.com/careers.html","webSiteUrl":"http://nrg-edge.com/","address":"5 Great Valley Parkway, Suite 210, Malvern, PA 19355 United States","geo":{"longitude":-75.533473,"latitude":40.064788},"positions":[{"title":"Lead Web Development Architect"},{"title":"UI Developer"},{"title":"Web Analyst / Tester"}],"state":"PA","county":"Chester"},
{"company":"PipelineDeals","url":"https://www.pipelinedeals.com/careers","webSiteUrl":"https://www.pipelinedeals.com/","address":"565 E. Swedesford Road, Suite 206, Wayne, PA 19087","geo":{"longitude":-75.4230364054,"latitude":40.076011027},"positions":[{"title":"Senior Product Manager"},{"title":"Customer Engagement Manager"},{"title":"Marketing Coordinator"},{"title":"Senior Software Engineer"},{"title":"Customer Ambassador"},{"title":"QA Analyst"}],"state":"PA","county":"Chester"},
{"company":"RDA Corp","url":"http://rdacorp.com/en/Careers/Current%20Openings","webSiteUrl":"http://rdacorp.com/","address":"101 Lindenwood Drive Suite 225 Malvern, PA 19355","geo":{"longitude":-75.528712,"latitude":40.049973},"positions":[{"title":"Account Executive - Digital Sales and Marketing"},{"title":"BI Contractor"},{"title":"SharePoint Contractor"},{"title":"Sitecore Developer"},{"title":"Digital Marketing Strategist"},{"title":"Cloud Developer Architect Contractor"}],"state":"PA","county":"Chester"},
{"company":"Rock River Star","url":"http://rockriverstar.com/careers","webSiteUrl":"http://rockriverstar.com/","address":"202 Corner Ketch Road, Downingtown, PA 19335","geo":{"longitude":-75.750801,"latitude":40.031643},"positions":[{"title":"Creative Director"},{"title":"Lead Project Architect"},{"title":"Programmer / Developer"}],"state":"PA","county":"Chester"},
{"company":"Savana, Inc.","url":"http://savanainc.com/company/careers/","webSiteUrl":"http://savanainc.com/","address":"920 Cassatt Road, Suite 220, Berwyn, PA 19312","geo":{"longitude":-75.45604168,"latitude":40.06229052},"positions":[{"title":"Business Analyst"}],"state":"PA","county":"Chester"},
{"company":"Scala","url":"http://join.scala.com/careers/","webSiteUrl":"http://scala.com/","address":"7 Great Valley Pkwy #300, Malvern, PA 19355","geo":{"longitude":-75.5384306945,"latitude":40.0632385406},"positions":[{"title":"Programmer"}],"state":"PA","county":"Chester"},
{"company":"Zonoff","url":"https://zonoff.com/our-story/careers/","webSiteUrl":"https://zonoff.com/","address":"70 E. Swedesford Rd., Suite 120, Malvern, PA 19460","geo":{"longitude":-75.5336614375,"latitude":40.051395125},"positions":[{"title":"UI Designer"},{"title":"Architect"},{"title":"Cloud Services Developer"},{"title":"DevOps Engineer"},{"title":"Javascript UI Developer"},{"title":"Linux Application Developer"},{"title":"Solutions Support Engineer"},{"title":"QA Test Engineer"},{"title":"Data Analytics Lead Contributor"},{"title":"Director, Content and Brand Marketing"}],"state":"PA","county":"Chester"},
{"company":"Zoomi","url":"http://www.zoomiinc.com/jobs/","webSiteUrl":"http://www.zoomiinc.com/","address":"101 Lindenwood Drive, Suite 400, Malvern PA 19355","geo":{"longitude":-75.527085,"latitude":40.050203},"positions":[{"title":"ALGORITHM ENGINEER"}],"state":"PA","county":"Chester"}
]