[
{"company":"B Lab","url":"http://slackatwork.com/company/B+Lab/","webSiteUrl":"http://www.bcorporation.net/","address":"155 East Lancaster Avenue, 2nd Floor, Wayne, PA 19087","geo":{"longitude":-75.385869,"latitude":40.043971},"positions":[{"title":"Jr. Web Application Developer"}],"state":"PA","county":"Delaware"},
{"company":"Compliance Implementation Services","url":"http://www.cisbydeloitte.com/careers/","webSiteUrl":"http://www.cis-partners.com/","address":"3809 West Chester Pike, Suite 100, Newtown Square, PA 19073","geo":{"longitude":-75.411689,"latitude":39.99049},"positions":[{"title":"BI Analytics and Visualization Specialist"},{"title":"Client Account Manager - Life Sciences"},{"title":"Data Software Engineer"},{"title":"Senior Software Engineer"},{"title":"Senior Software Engineer"},{"title":"Quality Assurance Manager"},{"title":"Manager Government Pricing and Contracts"},{"title":"Security & Information Assurance Manager"},{"title":"Business Analyst - Life Sciences"},{"title":"Quality Assurance Engineer"},{"title":"Software Engineer"},{"title":"Software Engineer"},{"title":"Sr. IT System Administrator"}],"state":"PA","county":"Delaware"},
{"company":"Philly Marketing Labs","url":"http://www.phillymarketinglabs.com/join-our-team/","webSiteUrl":"http://www.phillymarketinglabs.com/","address":"224 Lansdowne Ave, Wayne, PA 19087","geo":{"longitude":-75.3892247755,"latitude":40.040375898},"positions":[{"title":"Web Marketing Project Manager"},{"title":"Organic Search Manager"},{"title":"Paid Search Manager"}],"state":"PA","county":"Delaware"},
{"company":"Wilson Legal Solutions Inc","url":"http://www.wilsonlegalsol.com/careers.html","webSiteUrl":"http://www.wilsonlegalsol.com/","address":"3817 West Chester Pike, Newtown Square, PA 19073","geo":{"longitude":-75.408623,"latitude":39.986286},"positions":[{"title":".Net Developer"}],"state":"PA","county":"Delaware"}
]