[
{"company":"Alura Business Solutions","url":"http://www.alura.com/about.php","webSiteUrl":"http://www.alura.com/","address":"1000 Germantown Pike, Suite C4, Plymouth Meeting, PA 19462","geo":{"longitude":-75.297043,"latitude":40.129261},"positions":[{"title":"Network Administrator"}],"state":"PA","county":"Montgomery"},
{"company":"AppNexus Inc","url":"http://www.appnexus.com/en/company/careers/open-roles","webSiteUrl":"http://www.appnexus.com/","address":"625 Ridge Pike, Building A Suite 200, Conshohocken, PA 19428","geo":{"longitude":-75.29872,"latitude":40.09644},"positions":[{"title":"Senior Software Engineer"}],"state":"PA","county":"Montgomery"},
{"company":"ApprenNet","url":"http://info.apprennet.com/jobs/","webSiteUrl":"http://info.apprennet.com/","address":"1007 E Abington Ave, Wyndmoor, PA 19038","geo":{"longitude":-75.191686898,"latitude":40.0839338571},"positions":[{"title":"Director of Corporate Sales"}],"state":"PA","county":"Montgomery"},
{"company":"Arc Intermedia","url":"http://www.arcintermedia.com/company/careers/","webSiteUrl":"http://www.arcintermedia.com/","address":"1150 First Ave., Suite 501, King of Prussia, PA 19406","geo":{"longitude":-75.4155636667,"latitude":40.0950185455},"positions":[{"title":"Entry/Mid-Level Inbound Marketing Manager Position"},{"title":"Junior Front-end Web Developer/Web Designer"},{"title":"Senior Level SEO Position"},{"title":"Entry-Mid Level SEO Position"},{"title":"Part-time Experienced SEO Professional"},{"title":"Umbraco ASP.NET Developer"}],"state":"PA","county":"Montgomery"},
{"company":"Aspect Consulting","url":"http://www.aspect-consulting.com/careers.aspx","webSiteUrl":"http://www.aspect-consulting.com/","address":"20140 Valley Forge Circle, King of Prussia, PA 19406","geo":{"longitude":-75.412618,"latitude":40.105065},"positions":[{"title":"Programmer Analyst/.NET Developer"},{"title":"System Administrator, SME"}],"state":"PA","county":"Montgomery"},
{"company":"Brian Communications","url":"http://www.briancom.com/careers","webSiteUrl":"http://www.briancom.com/","address":"200 Four Falls Corporate Center, Suite 100, Conshohocken, PA 19428","geo":{"longitude":-75.306219,"latitude":40.066641},"positions":[{"title":"Digital Project Manager"},{"title":"Frontend Developer"},{"title":"Director of Web Development"},{"title":"Summer 2016 Intern- Strategy and Business Development"},{"title":"Summer 2016 Creative Intern"},{"title":"Summer 2016 Intern- Project Management"},{"title":"Summer 2016 Intern- Integrated Marketing"},{"title":"Summer 2016 Intern- Analytics"},{"title":"Summer 2016 Public Relations Intern"},{"title":"Creative Director"}],"state":"PA","county":"Montgomery"},
{"company":"Brio Solutions","url":"http://www.briosolutions.com/About/Careers.aspx","webSiteUrl":"http://www.briosolutions.com/","address":"455 Pennsylvania Avenue, Suite 136, Fort Washington, PA 19034","geo":{"longitude":-75.20793,"latitude":40.135976},"positions":[{"title":".NET Software Developers (All Levels)"}],"state":"PA","county":"Montgomery"},
{"company":"BTB Security","url":"http://www.btbsecurity.com/who-we-are/job-opportunities","webSiteUrl":"http://www.btbsecurity.com/","address":"3 Bala Plaza, Suite 701, Bala Cynwyd, PA 19004","geo":{"longitude":-75.218509,"latitude":40.009488},"positions":[{"title":"RADAR Analyst"}],"state":"PA","county":"Montgomery"},
{"company":"CardConnect","url":"https://www.cardconnect.com/contact/job-openings/","webSiteUrl":"https://www.cardconnect.com/","address":"1000 Continental Dr Suite 600, King of Prussia, PA 19406","geo":{"longitude":-75.399611,"latitude":40.081367},"positions":[{"title":"Oracle ETL/Database Developer"},{"title":"Human Resources Generalist"},{"title":"Enterprise Marketing Manager"},{"title":"Director | Enterprise Accounts"},{"title":"Product Content Coordinator"},{"title":"Software Engineer (Java)"},{"title":"JavaScript Developer"},{"title":"Senior Java Software Engineer"},{"title":"Customer Service Representative"}],"state":"PA","county":"Montgomery"},
{"company":"Chariot Solutions","url":"http://chariotsolutions.com/who-we-are/careers/","webSiteUrl":"http://chariotsolutions.com/","address":"515 Pennsylvania Ave #202, Fort Washington, PA 19034","geo":{"longitude":-75.2061795,"latitude":40.134146},"positions":[{"title":"Scala Developers"},{"title":"Sr. Java/Spring Developers"},{"title":"Mobile Developers"}],"state":"PA","county":"Montgomery"},
{"company":"Clinical Ink","url":"https://careers.smartrecruiters.com/ClinicalInk","webSiteUrl":"http://www.clinicalink.com/","address":"110 Gibraltar Road, Suite 150, Horsham, PA 19044","geo":{"longitude":-75.130956,"latitude":40.171473},"positions":[{"title":".Net Senior Engineer"},{"title":".NET/SQL Developer"}],"state":"PA","county":"Montgomery"},
{"company":"Clutch","url":"https://www.clutch.com/careers/","webSiteUrl":"https://www.clutch.com/","address":"201 S Maple St #250, Ambler, PA 19002","geo":{"longitude":-75.2278333396,"latitude":40.1561585849},"positions":[{"title":"SENIOR DATA SCIENTIST"},{"title":"PRODUCT MANAGER"}],"state":"PA","county":"Montgomery"},
{"company":"CoreDial","url":"https://careers-coredial.icims.com/jobs/search?ss=1&hashed=-435708982","webSiteUrl":"http://coredial.com/","address":"Hillcrest I, 751 Arbor Way, Suite 150, Blue Bell PA, 19422","geo":{"longitude":-75.285697,"latitude":40.140902},"positions":[{"title":"Lead Generation Assistant (LGA)"},{"title":"VoIP Support Technician Level II"},{"title":"VoIP Support Technician - Level I"},{"title":"UI/UX Designer"},{"title":"SQL DBA - MySQL"},{"title":"Product Owner"},{"title":"Financial Analyst – FP&A Analyst"},{"title":"Customer Support Coordinator"},{"title":"Business Analyst"},{"title":"Applications Support Lead"},{"title":"Applications Support Engineer"},{"title":"Principal Engineer"},{"title":"Business Development Associate"},{"title":"Data Architect"},{"title":"Associate Software Developer"},{"title":"Sr. Software Developer"},{"title":"Principle Software Engineer"},{"title":"Systems Architect"},{"title":"Software Developer"}],"state":"PA","county":"Montgomery"},
{"company":"Curotec","url":"http://www.curotec.com/about-us/careers/","webSiteUrl":"http://www.curotec.com/","address":"101 E 8th Ave, Suite #105, Conshohocken, PA 19428","geo":{"longitude":-75.299649,"latitude":40.078935},"positions":[{"title":"Sales and marketing"},{"title":"LAMP stack developer"},{"title":"Project manager"},{"title":"UI Developer"}],"state":"PA","county":"Montgomery"},
{"company":"Eastern Standard","url":"http://easternstandard.com/pages/careers","webSiteUrl":"http://easternstandard.com/","address":"261 Old York Rd. Suite 617 Jenkintown, PA 19046","geo":{"longitude":-75.125276,"latitude":40.093339},"positions":[{"title":"SENIOR GRAPHIC DESIGNER"},{"title":"DEVELOPER"}],"state":"PA","county":"Montgomery"},
{"company":"eMoney Advisor","url":"http://emoneyadvisor.theresumator.com/apply","webSiteUrl":"http://emoneyadvisor.com/","address":"1001 E Hector St, Conshohocken, PA 19428","geo":{"longitude":-75.289722,"latitude":40.07517},"positions":[{"title":"Billing Specialist"},{"title":"Client Communications Specialist"},{"title":"Client Support Specialist"},{"title":"Data Services Support Specialist"},{"title":"Senior Information Security Analyst-Risk Management"},{"title":"Senior Systems Automation Engineer"},{"title":"Software Engineer"},{"title":"Software Engineer-Data Services"},{"title":"Staff Accountant"}],"state":"PA","county":"Montgomery"},
{"company":"Empathy Lab","url":"http://www.epam.com/careers","webSiteUrl":"http://empathylab.epam.com/","address":"101 East 8th Ave, Suite 201, Conshohocken, PA 19428","geo":{"longitude":-75.299617,"latitude":40.079039},"positions":[{"title":"Creative Director"},{"title":"Senior UX Designer"}],"state":"PA","county":"Montgomery"},
{"company":"EPAM","url":"http://www.epam.com/careers","webSiteUrl":"http://www.epam.com/","address":"101 E 8th Ave #201, Conshohocken, PA 19428","geo":{"longitude":-75.299617,"latitude":40.079189},"positions":[{"title":"Senior Project Manager"},{"title":"Senior Visual Designer"}],"state":"PA","county":"Montgomery"},
{"company":"Fynydd","url":"https://fynydd.com/careers/","webSiteUrl":"https://fynydd.com/","address":"630 Freedom Business Center Drive, King of Prussia, PA 19406","geo":{"longitude":-75.4162122857,"latitude":40.0922677347},"positions":[{"title":"Senior Developer"}],"state":"PA","county":"Montgomery"},
{"company":"GLOBO","url":"https://globolanguage.hyrell.com/UI/Views/Applicant/VirtualStepCareers.aspx","webSiteUrl":"http://www.helloglobo.com/","address":"500 W Office Center Drive, Fort Washington, PA 19034","geo":{"longitude":-75.173581,"latitude":40.141835},"positions":[{"title":"DevOps Engineer"},{"title":"Quality Assurance Coordinator: Bilingual English-Spanish"}],"state":"PA","county":"Montgomery"},
{"company":"Halfpenny Technologies","url":"http://www.halfpenny.com/careers.html","webSiteUrl":"http://www.halfpenny.com/","address":"960 Harvest Drive, Building B Suite 200, Blue Bell, PA 19422","geo":{"longitude":-75.283326,"latitude":40.152771},"positions":[{"title":"Integration Developer"},{"title":"Quality Assurance (QA) Analyst"}],"state":"PA","county":"Montgomery"},
{"company":"Intuitive Company","url":"http://intuitivecompany.com/careers/","webSiteUrl":"http://intuitivecompany.com/","address":"3 Rector St #2, Philadelphia, PA 19127","geo":{"longitude":-75.22196085,"latitude":40.0240484551},"positions":[{"title":"User Experience Researcher"},{"title":"Program Delivery Manager"}],"state":"PA","county":"Montgomery"},
{"company":"J2 Solutions","url":"http://www.j2-solutions.com/career.aspx","webSiteUrl":"http://www.j2-solutions.com/","address":"660 American Avenue, Suite 104, King of Prussia, PA 19406","geo":{"longitude":-75.394149,"latitude":40.094423},"positions":[{"title":"Application Developers - .NET"},{"title":"Application Developers - Java"}],"state":"PA","county":"Montgomery"},
{"company":"KPInterface, Inc.","url":"http://www.kpinterface.com/careers.html","webSiteUrl":"http://www.kpinterface.com/","address":"477 N. Lewis Road, Suite 210, Limerick, PA 19468","geo":{"longitude":-75.544583,"latitude":40.209139},"positions":[{"title":"IT Consultant – Mid-Level"},{"title":"IT Consultant – Junior Level"},{"title":"Computer Tech Support Internship"}],"state":"PA","county":"Montgomery"},
{"company":"LeadiD","url":"http://www.leadid.com/about-us/join-our-team/open-positions","webSiteUrl":"http://www.leadid.com/","address":"201 S Maple St, Ambler, PA, 19002","geo":{"longitude":-75.2278333396,"latitude":40.1561585849},"positions":[{"title":"Data Scientist"},{"title":"Senior Software Engineer"}],"state":"PA","county":"Montgomery"},
{"company":"Monetate, Inc.","url":"http://www.monetate.com/about/careers/#open-positions","webSiteUrl":"http://www.monetate.com/","address":"951 E. Hector Street, Conshohocken PA 19428","geo":{"longitude":-75.2904890204,"latitude":40.0750470612},"positions":[{"title":"Data Scientist"},{"title":"DevOps Engineer"},{"title":"Javascript Engineer"},{"title":"Software Engineer"},{"title":"Product Manager"},{"title":"Product Owner"}],"state":"PA","county":"Montgomery"},
{"company":"Offshorent","url":"http://offshorent.com/careers","webSiteUrl":"http://offshorent.com/","address":"1000 W. Valley Forge Circle. #110A. King Of Prussia, PA 19406","geo":{"longitude":-75.4137162727,"latitude":40.1030152727},"positions":[{"title":"WordPress developer"},{"title":"Business Development Lead"},{"title":"Senior Engineer"}],"state":"PA","county":"Montgomery"},
{"company":"Plum Analytics","url":"http://plumanalytics.com/about/careers/","webSiteUrl":"http://plumanalytics.com/","address":"808 Firethorn Circle, Dresher PA 19025","geo":{"longitude":-75.1554711633,"latitude":40.1518441224},"positions":[{"title":"Senior Engineer / Architect (Big Data)"},{"title":"Mid-Level Engineer (Data Acquisition)"},{"title":"Mid-level Java Engineer"}],"state":"PA","county":"Montgomery"},
{"company":"Relay","url":"http://www.relaynetwork.com/careers/","webSiteUrl":"http://www.relaynetwork.com/","address":"201 king of prussia rd radnor pa 19087","geo":{"longitude":-75.388683,"latitude":40.081206},"positions":[{"title":"CLIENT PROJECT MANAGER"},{"title":"DATA ARCHITECT"},{"title":"DEVOPS MANAGER"},{"title":"FRONT-END DEVELOPER"},{"title":"SCRUM MASTER"},{"title":"SOFTWARE ENGINEER"},{"title":"SR. SALES EXECUTIVE"}],"state":"PA","county":"Montgomery"},
{"company":"roundCorner","url":"http://www.roundcorner.com/job-postings/","webSiteUrl":"http://www.roundcorner.com/","address":"16 E. Lancaster Ave, Ardmore, PA 19003","geo":{"longitude":-75.2902143333,"latitude":40.0074736667},"positions":[{"title":"Data Architect"},{"title":"Data Migration Specialist"},{"title":"Senior Project Manager"}],"state":"PA","county":"Montgomery"},
{"company":"Saturn Infotech Inc","url":"http://www.saturninfotech.com/pagedetail.php?contentid=22&mid=21","webSiteUrl":"http://www.saturninfotech.com/","address":"1120 Welsh Road, Suite 110, North Wales, Pennsylvania 19454","geo":{"longitude":-75.261352,"latitude":40.227722},"positions":[{"title":"Entry Level Hyperion Developers"},{"title":"Junior C/C++ or MATLAB Developers"},{"title":"Fresh Graduates - Systems Analyst / Programmer Analyst"}],"state":"PA","county":"Montgomery"},
{"company":"TherapyNotes","url":"https://www.pliner.com/careers/","webSiteUrl":"https://www.therapynotes.com/","address":"630 Fitzwatertown Rd, Suite A4, Willow Grove, PA, 19090","geo":{"longitude":-75.120882,"latitude":40.157568},"positions":[{"title":"Quality Assurance Engineer"},{"title":"Senior Software Developer"},{"title":"Software Developer"}],"state":"PA","county":"Montgomery"},
{"company":"Transmogrify","url":"http://xmog.com/jobs","webSiteUrl":"http://xmog.com/","address":"112 Fayette St., Conshohocken, PA 19428","geo":{"longitude":-75.306129102,"latitude":40.0739984286},"positions":[{"title":"Front-End / UI Developer"},{"title":"iOS Developer"},{"title":"User Interface / Visual Designer"}],"state":"PA","county":"Montgomery"},
{"company":"Veris Associates, Inc., dba VerisVisalign","url":"http://www.verisvisalign.com/company/careers/career-opportunities/","webSiteUrl":"http://www.verisvisalign.com/","address":"920 S. Broad Street, Lansdale, PA 19446","geo":{"longitude":-75.296258,"latitude":40.229151},"positions":[{"title":"SHAREPOINT ARCHITECTS"},{"title":"SHAREPOINT DEVELOPERS"},{"title":"PROJECT MANAGER"},{"title":"HELP DESK/SERVICE DESK ANALYST"},{"title":"APPLICATION PACKAGER"}],"state":"PA","county":"Montgomery"},
{"company":"Wingspan Technology","url":"http://www.wingspan.com/career_open_positions/","webSiteUrl":"http://www.wingspan.com/","address":"460 Norristown Road Suite 200, Blue Bell, PA 19422","geo":{"longitude":-75.255467,"latitude":40.133626},"positions":[{"title":"Software Engineer"},{"title":"Project Manager"},{"title":"DevOps Engineer"}],"state":"PA","county":"Montgomery"},
{"company":"WizeHive","url":"https://review.wizehive.com/voting/posting","webSiteUrl":"http://wizehive.com/","address":"441 E. Hector Street, Conshohocken, PA 19428","geo":{"longitude":-75.297755,"latitude":40.073628},"positions":[{"title":"Implementation Specialist"},{"title":"Jr. Implementation Specialist"}],"state":"PA","county":"Montgomery"},
{"company":"Zuppler","url":"http://www.zupplerworks.com/careers.html","webSiteUrl":"http://www.zupplerworks.com/","address":"730 East Elm St, Suite 200, Conshohocken, PA 19428","geo":{"longitude":-75.2935051429,"latitude":40.0738422857},"positions":[{"title":"Operations Project Manager"}],"state":"PA","county":"Montgomery"}
]