[
{"company":"160over90","url":"http://www.160over90.com/careers/","webSiteUrl":"http://www.160over90.com/","address":"1 South Broad Street, 10th Floor, Philadelphia, PA 19107","geo":{"longitude":-75.163514,"latitude":39.951741},"positions":[{"title":"Group Account Director"},{"title":"Account Supervisor"},{"title":"Account Director"},{"title":"Motion Graphics Designer"},{"title":"Video Editor"},{"title":"Production Artist"},{"title":"Production Manager"},{"title":"Creative Director"},{"title":"Senior Copywriter"},{"title":"Drupal Developer"}],"state":"PA","county":"Philadelphia"},
{"company":"50onRed","url":"http://50onred.theresumator.com/?utm_source=github","webSiteUrl":"http://50onred.com/","address":"2929 Arch St, Philadelphia, PA 19104","geo":{"longitude":-75.18091562069,"latitude":39.956848137931},"positions":[{"title":"Data Scientist"},{"title":"Senior Software Engineer"},{"title":"Media Buyer"},{"title":"UX Designer"},{"title":"Sales Executive"}],"state":"PA","county":"Philadelphia"},
{"company":"Allen & Gerritsen","url":"http://www.a-g.com/careers/","webSiteUrl":"http://www.a-g.com/","address":"1619 Walnut St. Philadelphia, PA 19103","geo":{"longitude":-75.1677158144,"latitude":39.9499277431},"positions":[{"title":"Digital Project Manager"},{"title":"Project Manager"},{"title":"Social Strategist"},{"title":"Digital Media Supervisor"},{"title":"Senior Digital Media Planner"}],"state":"PA","county":"Philadelphia"},
{"company":"Aramark","url":"https://allcareers-aramark.icims.com/jobs/search?ss=1&searchLocation=12781-12822-","webSiteUrl":"http://www.aramark.com/","address":"Philadelphia","geo":{"longitude":-75.203371,"latitude":40.07231},"positions":[{"title":"Associate Vice President, Security & Compliance"},{"title":"Manager, Windows Engineering/Implementations"},{"title":"Sr. Technical Consultant/Data Architect"}],"state":"PA","county":"Philadelphia"},
{"company":"Arcweb Technologies","url":"https://arcweb.co/careers/","webSiteUrl":"https://arcweb.co/","address":"234 Market Street, 5th Floor, Philadelphia, PA 19106","geo":{"longitude":-75.1449411502,"latitude":39.9499438006},"positions":[{"title":"Android Developer"},{"title":"Business Operations Intern"},{"title":"Java Engineer"},{"title":"Senior Software Engineer"},{"title":"Software Architect"},{"title":"Software Project Manager"}],"state":"PA","county":"Philadelphia"},
{"company":"Arora Engineers, Inc.","url":"http://www.aroraengineers.com/careers.asp","webSiteUrl":"http://www.aroraengineers.com/","address":"1601 Walnut Street, Suite 512, Philadelphia, PA 19102","geo":{"longitude":-75.167689,"latitude":39.950012},"positions":[{"title":"Mechanical Engineers"},{"title":"Electrical Engineers"},{"title":"Special Systems/Telecommunications Specialists"},{"title":"Fire Protection/Life Safety Engineers"},{"title":"Project Managers"},{"title":"Facilities Maintenance Technicians"},{"title":"Construction Managers"},{"title":"CAD Designers/Operators"}],"state":"PA","county":"Philadelphia"},
{"company":"Azavea","url":"http://jobs.azavea.com/","webSiteUrl":"http://www.azavea.com/","address":"340 N 12th St, Suite 402, Philadelphia, PA","geo":{"longitude":-75.1583954412,"latitude":39.9587179412},"positions":[{"title":"Operations Engineer"},{"title":"Software Engineer - Civic Apps Team"},{"title":"Software Engineer - Geospatial Insights Team"},{"title":"Software Engineer - GeoTrellis Team"}],"state":"PA","county":"Philadelphia"},
{"company":"baseklas","url":"http://baseklas.com/jobs/","webSiteUrl":"http://baseklas.com/","address":"128 Chestnut Street, Suite 304, Philadelphia PA 19106","geo":{"longitude":-75.143379125,"latitude":39.948286125},"positions":[{"title":"Groovy designer needed!"}],"state":"PA","county":"Philadelphia"},
{"company":"Billy Penn","url":"https://billypenn.com/jobs/","webSiteUrl":"https://billypenn.com/","address":"15th, 30 S 15th St, Philadelphia, PA 19102","geo":{"longitude":-75.165939,"latitude":39.949553},"positions":[{"title":"Freelance Developers"}],"state":"PA","county":"Philadelphia"},
{"company":"BioBots","url":"https://angel.co/biobots/jobs","webSiteUrl":"https://www.biobots.io/","address":"Philadelphia, PA","geo":{"longitude":-75.203371,"latitude":40.07231},"positions":[{"title":"Software Engineer"}],"state":"PA","county":"Philadelphia"},
{"company":"Blackfynn","url":"http://www.blackfynn.com/careers/","webSiteUrl":"http://www.blackfynn.com/","address":"123 N 3rd St 2nd Floor Philadelphia, PA 19106","geo":{"longitude":-75.145047,"latitude":39.952821},"positions":[{"title":"Full Stack Engineer"},{"title":"Front-end Developer"}],"state":"PA","county":"Philadelphia"},
{"company":"Bluecadet","url":"http://www.bluecadet.com/contact/careers/","webSiteUrl":"http://www.bluecadet.com/","address":"1526 Frankford Ave, Philadelphia, PA 19125","geo":{"longitude":-75.1338803439,"latitude":39.9735053244},"positions":[{"title":"Designer"},{"title":"Senior Interactive Designer"}],"state":"PA","county":"Philadelphia"},
{"company":"BresslerGroup","url":"http://www.bresslergroup.com/about/#jobs","webSiteUrl":"http://www.bresslergroup.com/","address":"7th floor, 1216 Arch St, Philadelphia, PA 19107","geo":{"longitude":-75.158654,"latitude":39.951735},"positions":[{"title":"Junior Graphic Designer"},{"title":"Senior Product Development Engineer"},{"title":"Interaction Designer"},{"title":"Software/Firmware Developer"},{"title":"Product Development Engineer"},{"title":"Electrical Engineer"},{"title":"Industrial Design Internship"}],"state":"PA","county":"Philadelphia"},
{"company":"Brownstein Group","url":"http://www.brownsteingroup.com/careers/","webSiteUrl":"http://www.brownsteingroup.com/","address":"215 South Broad Street, Philadelphia, PA 19107","geo":{"longitude":-75.1646539375,"latitude":39.9485219589},"positions":[{"title":"Production Artist"}],"state":"PA","county":"Philadelphia"},
{"company":"BuLogics","url":"http://bulogics.com/about-us/jobs/","webSiteUrl":"http://bulogics.com/","address":"3721 Midvale Ave, Philadelphia, PA 19129","geo":{"longitude":-75.19331115,"latitude":40.00971845},"positions":[{"title":"Lead Firmware Engineer"},{"title":"Firmware Developer"},{"title":"Cross-Platform Developer"}],"state":"PA","county":"Philadelphia"},
{"company":"ChatterBlast Media","url":"http://chatterblast.com/careers/","webSiteUrl":"http://chatterblast.com/","address":"1315 Walnut Street, Suite 800, Philadelphia, PA 19107","geo":{"longitude":-75.1628294,"latitude":39.9491672},"positions":[{"title":"Account Manager"}],"state":"PA","county":"Philadelphia"},
{"company":"Cloudamize","url":"http://www.cloudamize.com/careers/","webSiteUrl":"http://www.cloudamize.com/","address":"1735 Market St Suite 2502","geo":{"longitude":-75.1689862653,"latitude":39.9530423469},"positions":[{"title":"Solutions Engineer"},{"title":"Full Stack Software Engineer – Java"},{"title":"DevOps Engineer"}],"state":"PA","county":"Philadelphia"},
{"company":"Club OS","url":"https://angel.co/club-os/jobs","webSiteUrl":"https://www.club-os.com/","address":"1650 Arch St, #1906, Philadelphia, PA 19103","geo":{"longitude":-75.1671930612,"latitude":39.9549139592},"positions":[{"title":"Senior Java Sofware Engineer"},{"title":"Front End Web Developer"},{"title":"Software Engineer"}],"state":"PA","county":"Philadelphia"},
{"company":"CLVmetrics","url":"http://jobs.lever.co/clvmetrics","webSiteUrl":"http://www.clvmetrics.com/","address":"4040 Locust St, Philadelphia, PA","geo":{"longitude":-75.204864,"latitude":39.953097},"positions":[{"title":"Backend Engineer"},{"title":"Frontend Engineer"},{"title":"Full Stack Engineer"}],"state":"PA","county":"Philadelphia"},
{"company":"Conigent","url":"http://www.conigent.com/contact/#openings-list","webSiteUrl":"http://www.conigent.com/","address":"226 Haddonfield Road, Suite 300, Cherry Hill, NJ 08002","geo":{"longitude":-75.165222,"latitude":39.952584},"positions":[{"title":"Infor M3 Project Manager"},{"title":"Infor M3 Functional Consultant - Procurement Warehousing & Logistics"},{"title":"Infor M3 Functional Consultant - Financial Management Implementation"},{"title":"Infor M3 Technical Consultant - Integration (MEC/ION/EDI)"},{"title":"Infor M3 Technical Consultant - Development (Java/MAK/Mashups/Smart Office SDK)"},{"title":"Infor M3 Functional Consultant - Equipment Service Management & Rental"},{"title":"Infor M3 Functional Consultant - Customer Sales Management"},{"title":"M3 Functional Consultant - Planning & Manufacturing Operations"}],"state":"PA","county":"Philadelphia"},
{"company":"Copycat Tech, Inc","url":"http://careers.stackoverflow.com/jobs?company=Copycat","webSiteUrl":"http://www.wecopycat.com/","address":"Philadelphia, PA","geo":{"longitude":-75.165222,"latitude":39.952584},"positions":[{"title":"iOS Engineer"}],"state":"PA","county":"Philadelphia"},
{"company":"Curalate","url":"https://boards.greenhouse.io/curalate#.VkAHsa6rRE5","webSiteUrl":"http://www.curalate.com/","address":"2401 Walnut St #502, Philadelphia, PA 19103","geo":{"longitude":-75.179508,"latitude":39.95109},"positions":[{"title":"Product Manager"},{"title":"UX Designer"},{"title":"DevOps Engineer"},{"title":"Front End (Solutions) Engineer"},{"title":"Lead Support Engineer"},{"title":"Software Engineer"}],"state":"PA","county":"Philadelphia"},
{"company":"D4 Creative Group","url":"http://www.d4creative.com/careers","webSiteUrl":"http://www.d4creative.com/","address":"4646 Umbria Street","geo":{"longitude":-75.2300390769,"latitude":40.0305332308},"positions":[{"title":"Copywriter"},{"title":"Designer"},{"title":"Front-End Developer"},{"title":"Project Manager"},{"title":"PHP Developer"}],"state":"PA","county":"Philadelphia"},
{"company":"Delphic Digital","url":"http://www.delphicdigital.com/about/careers/open-positions","webSiteUrl":"http://www.delphicdigital.com/","address":"116 Shurs Lane, 2nd Floor, Philadelphia, PA 19127","geo":{"longitude":-75.217571,"latitude":40.022712},"positions":[{"title":"Sitecore Web Developer"},{"title":"Systems Admin / DevOps Architect"}],"state":"PA","county":"Philadelphia"},
{"company":"Diagnostic Driving, LLC","url":"http://www.diagnosticdriving.com/careers/","webSiteUrl":"http://www.diagnosticdriving.com/","address":"3401 Market Street, 2nd Floor, Philadelphia, PA 19104","geo":{"longitude":-75.191729,"latitude":39.956175},"positions":[{"title":"Game Developer"}],"state":"PA","county":"Philadelphia"},
{"company":"DramaFever","url":"http://www.dramafever.com/company/careers.html","webSiteUrl":"http://www.dramafever.com/","address":"1717 Arch St, Suite 601, Philadelphia, PA","geo":{"longitude":-75.1650889796,"latitude":39.9546511633},"positions":[{"title":"Android Developer"},{"title":"iOS Developer"},{"title":"Network Operations Manager"}],"state":"PA","county":"Philadelphia"},
{"company":"Dronecast","url":"http://www.dronecast.com/careers/","webSiteUrl":"http://www.dronecast.com/","address":"1700 Market Street, Suite 1005, Philadelphia PA","geo":{"longitude":-75.168444,"latitude":39.952974},"positions":[{"title":"Graphic Designe"},{"title":"IOS Developer"},{"title":"Web Developer"},{"title":"Social Media Manager"}],"state":"PA","county":"Philadelphia"},
{"company":"eCity Interactive","url":"http://ecityinteractive.com/us/careers/","webSiteUrl":"http://ecityinteractive.com/","address":"136 S 15th St, Philadelphia, PA 19102","geo":{"longitude":-75.165874,"latitude":39.949955},"positions":[{"title":"Senior Developer w/Sys Ops Experience"},{"title":"Junior Interactive Designer"}],"state":"PA","county":"Philadelphia"},
{"company":"Economy League of Greater Philadelphia","url":"http://economyleague.org/about-us/join-our-team","webSiteUrl":"http://economyleague.org/","address":"230 S Broad St, Philadelphia PA 19102","geo":{"longitude":-75.1644585,"latitude":39.94878},"positions":[{"title":"PROJECT MANAGER"}],"state":"PA","county":"Philadelphia"},
{"company":"Elsevier","url":"https://www.elsevier.com/about/careers/tech","webSiteUrl":"https://www.elsevier.com/","address":"1600 John F Kennedy Blvd #1800, Philadelphia, PA 19103","geo":{"longitude":-75.1671666,"latitude":39.9537238},"positions":[{"title":"Commercial Director, Patient Engagement"},{"title":"Director, Cloud/Hosting, Infrastructure & Operations"},{"title":"Operations Director (End User Infrastructure)"},{"title":"Product Manager, Assessment"},{"title":"Quality Engineering Lead"},{"title":"Senior Custom Content Specialist"},{"title":"Software Engineer"},{"title":"Software Engineer - Machine Learning"},{"title":"User Experience Lead"},{"title":"VP Infrastructure & Operations"}],"state":"PA","county":"Philadelphia"},
{"company":"Evoke Health","url":"http://www.evokehealth.com/Careers","webSiteUrl":"http://www.evokehealth.com/","address":"1 South Broad St., 13th Floor, Philadelphia, PA","geo":{"longitude":-75.163514,"latitude":39.951591},"positions":[{"title":"User Experience (UX) Designer"},{"title":"Senior QA Analyst"},{"title":"Project Manager / Sr Project Manager"},{"title":"Copywriter"},{"title":"Art Director"},{"title":"Account Supervisor"},{"title":"Account Executive"},{"title":"Account Director"},{"title":"Proofreader"},{"title":"Analytics Associate"}],"state":"PA","county":"Philadelphia"},
{"company":"Famehouse","url":"http://famehouse.net/category/job-listings/","webSiteUrl":"http://famehouse.net/","address":"Philadelphia, PA","geo":{"longitude":-75.203371,"latitude":40.07231},"positions":[{"title":"FRONT-END DEVELOPER"}],"state":"PA","county":"Philadelphia"},
{"company":"FastFig","url":"https://angel.co/fastfig/jobs","webSiteUrl":"https://www.fastfig.com/","address":"Philadelphia, PA","geo":{"longitude":-75.203371,"latitude":40.07231},"positions":[{"title":"Front End Developer"}],"state":"PA","county":"Philadelphia"},
{"company":"GatherDocs","url":"http://jobs.gatherdocs.com/","webSiteUrl":"http://gatherdocs.com/","address":"4040 Locust St, Philadelphia, PA 19104","geo":{"longitude":-75.2038928333,"latitude":39.9531008333},"positions":[{"title":"PHP Web Developer"},{"title":"Software Engineer"}],"state":"PA","county":"Philadelphia"},
{"company":"Graphene Frontiers","url":"http://graphenefrontiers.com/careers/","webSiteUrl":"http://graphenefrontiers.com/","address":"3624 Market St. FL 5th, Philadelphia, PA 19104","geo":{"longitude":-75.1946339592,"latitude":39.9562402245},"positions":[{"title":"Biosensor Research and Development Technician"},{"title":"Database Developer / Programmer"},{"title":"Senior Semiconductor Device Engineer"}],"state":"PA","county":"Philadelphia"},
{"company":"Greenlane Search Marketing, LLC","url":"http://www.greenlaneseo.com/jobs/","webSiteUrl":"http://www.greenlaneseo.com/","address":"Philadelphia, PA","geo":{"longitude":-75.165222,"latitude":39.952584},"positions":[{"title":"Graphic / Web Designer"},{"title":"Web Analyst"}],"state":"PA","county":"Philadelphia"},
{"company":"Happy Cog","url":"http://www.happycog.com/","webSiteUrl":"http://www.happycog.com/","address":"1315 Walnut St, Philadelphia, PA 19107","geo":{"longitude":-75.16289,"latitude":39.949591},"positions":[{"title":"Designer"},{"title":"Senior Designer"}],"state":"PA","county":"Philadelphia"},
{"company":"HealthVerity","url":"http://healthverity.com/careers-2","webSiteUrl":"http://healthverity.com/","address":"100 North 20th Street, Suite 203, Philadelphia, PA  19103","geo":{"longitude":-75.17309,"latitude":39.95591},"positions":[{"title":"GIS Developer"},{"title":"Back End Software Developer"},{"title":"Front End Software Developer"},{"title":"Operations Engineer / DevOps"}],"state":"PA","county":"Philadelphia"},
{"company":"Here's My Chance","url":"http://heresmychance.com/careers/","webSiteUrl":"http://heresmychance.com/","address":"121 S. 13th Street 4th Floor Philadelphia, PA 19107","geo":{"longitude":-75.161949,"latitude":39.949836},"positions":[{"title":"Copywriter"},{"title":"Freelance Designer"}],"state":"PA","county":"Philadelphia"},
{"company":"I-SITE","url":"http://www.i-site.com/blog","webSiteUrl":"http://www.i-site.com/","address":"15 South 3rd St Suite 200, Philadelphia, PA, 19106","geo":{"longitude":-75.1476798,"latitude":39.9496157},"positions":[{"title":"Digital Project Manager"},{"title":"Winter Interns"}],"state":"PA","county":"Philadelphia"},
{"company":"Inspire Energy","url":"http://www.inspireenergy.com/join-our-team#powers","webSiteUrl":"http://www.inspireenergy.com/","address":"Philadelphia, PA","geo":{"longitude":-75.165222,"latitude":39.952584},"positions":[{"title":"Backend Developer - VC Backed Startup"},{"title":"Full Stack Developer - VC Backed Startup"},{"title":"Web Developer - VC Backed Startup"}],"state":"PA","county":"Philadelphia"},
{"company":"InstaMed","url":"http://www.instamed.com/about/careers/","webSiteUrl":"http://www.instamed.com/","address":"1880 JFK Boulevard  12th floor, Philadelphia, PA 19103","geo":{"longitude":-75.174298,"latitude":39.952896},"positions":[{"title":"Engagement Lead"},{"title":"User Experience Researcher"},{"title":"Program Delivery Manager"}],"state":"PA","county":"Philadelphia"},
{"company":"IntegriChain","url":"http://www.integrichain.com/about-us/careers/","webSiteUrl":"http://www.integrichain.com/","address":"1628 JFK Boulevard, Suite 300, Philadelphia, PA 19103","geo":{"longitude":-75.167953,"latitude":39.953705},"positions":[{"title":"Senior Test Engineer"}],"state":"PA","county":"Philadelphia"},
{"company":"InterNACHI","url":"https://internachi.recruitee.com/","webSiteUrl":"https://www.nachi.org/","address":"Philadelphia, PA","geo":{"longitude":-75.165222,"latitude":39.952584},"positions":[{"title":"Senior Web Developer (PHP, MySQL, JS, HTML, CSS)"}],"state":"PA","county":"Philadelphia"},
{"company":"IT Pros - Philadelphia","url":"http://www.itprosphilly.com/careers/","webSiteUrl":"http://www.itprosphilly.com/","address":"1 Brown Street, #1604, Philadelphia, PA 19123","geo":{"longitude":-75.13767,"latitude":39.962402},"positions":[{"title":".NET Developer"}],"state":"PA","county":"Philadelphia"},
{"company":"Jefferson","url":"http://www.jefferson.edu/human-resources/careers.html","webSiteUrl":"http://www.jefferson.edu/","address":"1025 Walnut Street, Philadelphia, PA 19107","geo":{"longitude":-75.158186,"latitude":39.948784},"positions":[{"title":"Application Development Specialist - IS&T - V69 - 9207191"},{"title":"Multimedia Instructional Designer - IS&T - V67 - 9207192"},{"title":"Data Scientist - IS&T - V70 - 9207105"},{"title":"Security Analyst II - IS&T - V67 - 9207104"},{"title":"Senior Voice Communications Technician - V66 - 9207102"},{"title":"Lead Client Solutions Analyst - 9205587"},{"title":"Windows System Administrator - V68 - 9206962"},{"title":"Domain Architect - 9205737"},{"title":"Security Analyst II - IS&T - 9204646"},{"title":"Application Development Specialist - IS&T - 9205225"},{"title":"Oracle Database Administrator - 9204645"},{"title":"Sr. Storage Administrator - 9204643"},{"title":"End-Point System Administrator (V67) - 9206277"},{"title":"Virtualization Administrator (V68) - IS&T - 9206155"},{"title":"IT Infrastructure Project Manager (V70) - 9206157"},{"title":"Senior Apple Systems Administrator (V68) - 9206161"},{"title":"Web Developer - 9206162"},{"title":"Director of IS&T Security & Enterprise Security Officer - 9205586"}],"state":"PA","county":"Philadelphia"},
{"company":"KickUp","url":"https://angel.co/kickup-1/jobs","webSiteUrl":"http://kickup.co/","address":"Philadelphia, PA","geo":{"longitude":-75.203371,"latitude":40.07231},"positions":[{"title":"Data visualization intern"},{"title":"Front-end engineer"},{"title":"Full-stack developer"}],"state":"PA","county":"Philadelphia"},
{"company":"Lamps.com Inc","url":"http://jobs.interactivecommercegroup.com/","webSiteUrl":"http://www.lamps.com/","address":"1217 Sansom St, Floor 8, Philadelphia, PA 19107","geo":{"longitude":-75.161334,"latitude":39.949923},"positions":[{"title":"eCommerce Merchandiser"},{"title":"Full Stack Magento Developer"},{"title":"Product Data Specialist"}],"state":"PA","county":"Philadelphia"},
{"company":"Leadnomics","url":"http://www.leadnomics.com/careers/","webSiteUrl":"http://www.leadnomics.com/","address":"2929 Arch St, Philadelphia, PA 19104","geo":{"longitude":-75.1809156207,"latitude":39.9568481379},"positions":[{"title":"Software Engineer"},{"title":"Software Engineer (node.js, java, php, aws)"}],"state":"PA","county":"Philadelphia"},
{"company":"Lemma","url":"https://www.lem.ma/home/?page_id=70","webSiteUrl":"https://www.lem.ma/","address":"Philadelphia, PA","geo":{"longitude":-75.203371,"latitude":40.07231},"positions":[{"title":"Full stack Angular.js, Node.js developer"},{"title":"UX Developer"}],"state":"PA","county":"Philadelphia"},
{"company":"LevelUp","url":"https://www.thelevelup.com/jobs","webSiteUrl":"https://www.thelevelup.com/","address":"1628 JFK Blvd., Philadelphia, PA","geo":{"longitude":-75.167953,"latitude":39.953705},"positions":[{"title":"Ruby on Rails Developer"},{"title":"iOS Developer"},{"title":"Sr iOS Developer"},{"title":"Sr Android Developer"}],"state":"PA","county":"Philadelphia"},
{"company":"MaassMedia, LLC","url":"http://www.maassmedia.com/about-our-careers.php","webSiteUrl":"http://www.maassmedia.com/","address":"1880 JFK Blvd, Suite 201, Philadelphia, PA 19103","geo":{"longitude":-75.171007,"latitude":39.954096},"positions":[{"title":"Analytics Solutions Engineer"},{"title":"Consultant - Data Science/Reporting"}],"state":"PA","county":"Philadelphia"},
{"company":"Masterminds","url":"http://mastermindsagency.com/#gigs","webSiteUrl":"http://mastermindsagency.com/","address":"1315 Walnut Street, Suite 300, Philadelphia, PA 19107","geo":{"longitude":-75.1626386191,"latitude":39.9493152971},"positions":[{"title":"Social Media Community Manager"},{"title":"Graphic Designer – Full time or Freelance"},{"title":"Creative Internships"},{"title":"Media Internship"}],"state":"PA","county":"Philadelphia"},
{"company":"MentorTech Ventures","url":"http://www.mentortechventures.com/jobs","webSiteUrl":"http://www.mentortechventures.com/","address":"3624 Market Street, Suite 300, Philadelphia, PA","geo":{"longitude":-75.1946339592,"latitude":39.9562402245},"positions":[{"title":"iOS Developer"},{"title":"Ruby Developer"},{"title":"iOS Developer – Intern/Co-Op"},{"title":"Ruby Developer – Intern/Co-Op"},{"title":"UI/UX Design – Intern/Co-Op"}],"state":"PA","county":"Philadelphia"},
{"company":"MOD Worldwide","url":"http://www.modworldwide.com/creative.html","webSiteUrl":"http://www.modworldwide.com/","address":"121 S Broad St, Philadelphia, PA 19107","geo":{"longitude":-75.1638900816,"latitude":39.950696},"positions":[{"title":"GRAPHIC DESIGNER"},{"title":"COPYWRITER"},{"title":"PROOFREADER/RESEARCH"}],"state":"PA","county":"Philadelphia"},
{"company":"Morgan Lewis","url":"https://sjobs.brassring.com/TGWebHost/home.aspx?partnerid=25936&siteid=5172","webSiteUrl":"https://www.morganlewis.com/","address":"1701 Market St Philadelphia","geo":{"longitude":-75.168444,"latitude":39.952974},"positions":[{"title":"365BR Business Intelligence Engineer"},{"title":"678BR Network Engineer (Infrastructure)"},{"title":"692BR Manager of Information Governance Compliance"},{"title":"585BR New Business Analyst"},{"title":"687BR Human Resources Coordinator"},{"title":"683BR Human Resources Coordinator"},{"title":"647BR SQL DBA Developer"},{"title":"682BR Human Resources Manager"},{"title":"415BR Business Operations Analyst"},{"title":"671BR Manager of Web Development"},{"title":"670BR Business Operations Analyst"},{"title":"653BR Communications Specialist"},{"title":"656BR Talent Acquisition Business Partner"},{"title":"610BR Manager of Professional Development"},{"title":"643BR Manager, Business Development & Marketing - Litigation"},{"title":"592BR Director-Business Development and Marketing"},{"title":"371BR Manager - Business Operations"}],"state":"PA","county":"Philadelphia"},
{"company":"Moven","url":"https://angel.co/moven/jobs","webSiteUrl":"https://www.moven.com/","address":"Philadelphia, PA","geo":{"longitude":-75.203371,"latitude":40.07231},"positions":[{"title":"Full Stack Engineer"},{"title":"Service Delivery Engineer"},{"title":"Senior UX Designer"},{"title":"Data Scientist"},{"title":"Data Analyst"},{"title":"Senior Mobile Engineer"}],"state":"PA","county":"Philadelphia"},
{"company":"My Mobile ED","url":"https://angel.co/my-mobile-ed/jobs","webSiteUrl":"http://mymobileed.com/","address":"Philadelphia, PA","geo":{"longitude":-75.203371,"latitude":40.07231},"positions":[{"title":"Software Engineer"}],"state":"PA","county":"Philadelphia"},
{"company":"Nasdaq OMX","url":"https://careersus-nasdaq.icims.com/jobs/search?ss=1&searchLocation=12781-12822-philadelphia","webSiteUrl":"http://business.nasdaq.com/","address":"1900 Market St,Philadelphia, PA","geo":{"longitude":-75.171593,"latitude":39.953368},"positions":[{"title":"Product Management Sr Spec"},{"title":"Project Manager US Equities Group"}],"state":"PA","county":"Philadelphia"},
{"company":"Netplus","url":"http://thinknetplus.com/contact/#netplus-jobs","webSiteUrl":"http://thinknetplus.com/","address":"718 Arch St Suite #400S","geo":{"longitude":-75.1518336122,"latitude":39.9529856531},"positions":[{"title":"Interactive Designer"},{"title":"Social Media Community Manager"},{"title":"Search and Social Advertising Manager"},{"title":"Web Developer Full-Stack"},{"title":"Interactive Developer"},{"title":"Digital Project Manager"}],"state":"PA","county":"Philadelphia"},
{"company":"New York Code + Design Academy","url":"https://angel.co/new-york-code-design-academy-1/jobs","webSiteUrl":"https://nycda.com/","address":"30 South 17th Street, Philadelphia, PA 19103","geo":{"longitude":-75.169528,"latitude":39.952215},"positions":[{"title":"Web Development Instructor"}],"state":"PA","county":"Philadelphia"},
{"company":"Night Kitchen Interactive","url":"http://www.whatscookin.com/about/careers","webSiteUrl":"http://www.whatscookin.com/","address":"411 South 2nd Street, Suite 200, Philadelphia, PA 19147","geo":{"longitude":-75.1449762344,"latitude":39.942945848},"positions":[{"title":"Creative Lead"},{"title":"Interactive Web Developer"}],"state":"PA","county":"Philadelphia"},
{"company":"Nimblelight","url":"http://nimblelight.com/jobs/","webSiteUrl":"http://nimblelight.com/","address":"4355 Orchard St, Philadelphia PA, 19124","geo":{"longitude":-75.0858912041,"latitude":40.0109041224},"positions":[{"title":"Developer"}],"state":"PA","county":"Philadelphia"},
{"company":"O3 World","url":"http://o3world.com/careers/","webSiteUrl":"http://o3world.com/","address":"1339 Frankford Avenue, Suite 3, Philadelphia, PA 19125","geo":{"longitude":-75.1342654346,"latitude":39.9712247406},"positions":[{"title":"UI / UX DESIGNER"},{"title":"IOS DEVELOPER"},{"title":"FULL STACK JAVASCRIPT DEVELOPER"},{"title":"FRONT-END DEVELOPER"},{"title":"WEB PROGRAMMER"}],"state":"PA","county":"Philadelphia"},
{"company":"Oncora Medical","url":"https://oncoramedical.recruiterbox.com/","webSiteUrl":"http://oncoramedical.com/","address":"4040 Locust St, Philadelphia, PA 19104","geo":{"longitude":-75.204789,"latitude":39.952883},"positions":[{"title":"Data Engineer"},{"title":"Cloud Ops Engineer"},{"title":"Data Scientist"},{"title":"UX and Data Visualization Developer"}],"state":"PA","county":"Philadelphia"},
{"company":"PeopleLinx","url":"http://peoplelinx.com/careers/","webSiteUrl":"http://peoplelinx.com/","address":"1835 Market Street, Philadelphia, PA 19103","geo":{"longitude":-75.1705572449,"latitude":39.9532393469},"positions":[{"title":"Lead Content Designer / Instructional Designer"},{"title":"Client Success Manager"},{"title":"Account Executive"}],"state":"PA","county":"Philadelphia"},
{"company":"PerPay Inc","url":"http://perpay.com/careers.html","webSiteUrl":"http://perpay.com/","address":"Philadelphia, PA","geo":{"longitude":-75.203371,"latitude":40.07231},"positions":[{"title":"Engineers"}],"state":"PA","county":"Philadelphia"},
{"company":"Philadelphia Convention & Visitors Bureau PHLCVB","url":"http://www.discoverphl.com/about-PHLCVB/employment/","webSiteUrl":"http://www.discoverphl.com/","address":"1700 Market St., Suite 3000 Philadelphia, PA 19103","geo":{"longitude":-75.168444,"latitude":39.952974},"positions":[{"title":"Marketing Specialist"}],"state":"PA","county":"Philadelphia"},
{"company":"Philadelphia Media Network","url":"http://apsweb.philly.com/jobs/","webSiteUrl":"http://www.philly.com/","address":"801 Market Street, Suite 300, Philadelphia PA 19107","geo":{"longitude":-75.153737,"latitude":39.951667},"positions":[{"title":"Sales Planning Analyst"},{"title":"Outside Local Sales Representatives"},{"title":"Digital Advertising Sales Manager"},{"title":"Production Coordinator"},{"title":"Digital Audience Analyst"},{"title":"Product Associate"},{"title":"Co-Op Account Executive"},{"title":"Graphic Designer"},{"title":"Interactive Graphic Designer"},{"title":"Digital Reporting and Yield Specialist"},{"title":"Digital Campaign Manager"},{"title":"CRM Database Manager"},{"title":"Senior Market Research Analyst (Digital)"}],"state":"PA","county":"Philadelphia"},
{"company":"Picwell Inc","url":"http://nerds.picwell.com/jobs/","webSiteUrl":"http://picwell.com/","address":"2200 Arch Street, Philadelphia, PA 19103","geo":{"longitude":-75.176907,"latitude":39.955875},"positions":[{"title":"Software Engineer"},{"title":"Data Engineer"},{"title":"Data Scientist (Production)"}],"state":"PA","county":"Philadelphia"},
{"company":"PromptWorks","url":"http://www.promptworks.com/jobs/","webSiteUrl":"http://www.promptworks.com/","address":"1211 Chestnut St, Suite 400, Philadelphia PA, 19107","geo":{"longitude":-75.1603696122,"latitude":39.9504152041},"positions":[{"title":"Senior Software Engineer"},{"title":"Software Engineer"},{"title":"Senior Front-end Engineer"}],"state":"PA","county":"Philadelphia"},
{"company":"Pulsar Informatics","url":"http://www.pulsarinformatics.com/about.html#anchor_positions","webSiteUrl":"http://www.pulsarinformatics.com/","address":"3401 Market Street, Philadelphia, PA 19104","geo":{"longitude":-75.191464,"latitude":39.955843},"positions":[{"title":"Senior Software Developer"}],"state":"PA","county":"Philadelphia"},
{"company":"P'unk Avenue","url":"http://jobs.punkave.com/","webSiteUrl":"http://punkave.com/","address":"1168 E. Passyunk Avenue Philadelphia, PA 19147","geo":{"longitude":-75.1578163143,"latitude":39.9345045143},"positions":[{"title":"Front-End Developer"},{"title":"Full Stack Developer"}],"state":"PA","county":"Philadelphia"},
{"company":"Red Tettemer O'Connell + Partners","url":"http://www.rtop.com/contact/","webSiteUrl":"http://www.rtop.com/","address":"1 S. Broad, 24th Floor, Philadelphia, PA","geo":{"longitude":-75.163487,"latitude":39.951199},"positions":[{"title":"COPYWRITER"},{"title":"ART DIRECTOR"},{"title":"APP DEVELOPER"},{"title":"WEB DEV INTERN"}],"state":"PA","county":"Philadelphia"},
{"company":"RegDesk","url":"https://angel.co/regdesk/jobs","webSiteUrl":"http://www.regdesk.co/","address":"Philadelphia, PA","geo":{"longitude":-75.203371,"latitude":40.07231},"positions":[{"title":"Developer"},{"title":"Front-End Intern"}],"state":"PA","county":"Philadelphia"},
{"company":"Revzilla","url":"http://www.revzilla.com/careers","webSiteUrl":"http://www.revzilla.com/","address":"4020 S 26th St, Philadelphia, PA 19112","geo":{"longitude":-75.187326,"latitude":39.936679},"positions":[{"title":"Manager, Digital Analytics and Insights"},{"title":"Manager, Usability and Research"},{"title":"Senior Product Designer"},{"title":"Search Engine Marketing (SEM) Manager"},{"title":"Digital Marketing Manager - Display/Media"},{"title":"Digital Content Manager - Editorial"},{"title":"RevZilla Video Production Coordinator"},{"title":"Web Developer"}],"state":"PA","county":"Philadelphia"},
{"company":"RightAction","url":"http://rightaction.theresumator.com/","webSiteUrl":"https://www.rightaction.com/","address":"2929 Arch St, Philadelphia, PA 19104","geo":{"longitude":-75.1809156207,"latitude":39.9568481379},"positions":[{"title":"Software Engineer, Java"},{"title":"Software Engineer, Java + Ruby"}],"state":"PA","county":"Philadelphia"},
{"company":"RJMetrics","url":"https://rjmetrics.com/jobs/","webSiteUrl":"https://rjmetrics.com/","address":"1339 Chestnut Street Suite 1500 Philadelphia PA, 19107","geo":{"longitude":-75.1629786667,"latitude":39.9507376667},"positions":[{"title":"Data Analyst"},{"title":"Data Warehouse Analyst"},{"title":"Security Engineer"},{"title":"Senior Web Applications Engineer"}],"state":"PA","county":"Philadelphia"},
{"company":"SEER Interactive","url":"http://www.seerinteractive.com/careers/","webSiteUrl":"http://www.seerinteractive.com/","address":"1033 N 2nd Street, Philadelphia, PA","geo":{"longitude":-75.1400423333,"latitude":39.9672323333},"positions":[{"title":"Digital Strategy Manager"},{"title":"Director of Business Strategy"},{"title":"Analytics Associate"},{"title":"Director of Paid Search"},{"title":"Analytics Account Manager"},{"title":"Technical SEO Associate"},{"title":"SEO Account Manager"},{"title":"PPC Associate"},{"title":"PPC Account Manager"},{"title":"SEO Associate"}],"state":"PA","county":"Philadelphia"},
{"company":"Sidecar","url":"https://hello.getsidecar.com/careers-listing/","webSiteUrl":"https://hello.getsidecar.com/","address":"114 S. 13th Street, 3rd Floor, Philadelphia, PA 19107","geo":{"longitude":-75.161949,"latitude":39.949836},"positions":[{"title":"Application Support Developer"},{"title":"Infrastructure Support Developer"},{"title":"Product Manager"},{"title":"Technical Project Manager"},{"title":"Sr. Product Analyst"},{"title":"Sr. DevOps Engineer"},{"title":"Systems Administrator"},{"title":"Sr. Data Scientist"},{"title":"Sr. Front End Engineer"},{"title":"Sr. Product Engineer"},{"title":"Content Marketing Manager"}],"state":"PA","county":"Philadelphia"},
{"company":"SnipSnap","url":"http://www.snipsnap.it/snipsnap-jobs/","webSiteUrl":"http://www.snipsnap.it/","address":"109 South 13th Street, Philadelphia, PA 19107","geo":{"longitude":-75.161868,"latitude":39.950196},"positions":[{"title":"Product Designer (Android)"}],"state":"PA","county":"Philadelphia"},
{"company":"Stuzo","url":"http://www.stuzo.com/careers/","webSiteUrl":"http://www.stuzo.com/","address":"211 North 13th Street, Suite 802, Philadelphia, PA 19107","geo":{"longitude":-75.160248,"latitude":39.956513},"positions":[{"title":"Technical Project Manager"}],"state":"PA","county":"Philadelphia"},
{"company":"SunGuard Financial","url":"http://financialsystemsjobs.sungard.com/search/advanced-search/ASCategory/-1/SPostedDate/-1/ASCountry/-1/ASState/-1/ASCity/Philadelphia/ASLocation/-1/ASCompanyName/-1/ASCustom1/-1/ASCustom2/-1/ASCustom3/-1/ASCustom4/-1/ASCustom5/-1/SIsRadius/false/ASCityStateZipcode/-1/ASDistance/-1/ASLatitude/-1/ASLongitude/-1/ASDistanceType/-1","webSiteUrl":"https://www.sungard.com/","address":"601 Walnut St, Philadelphia, PA 19106","geo":{"longitude":-75.151171,"latitude":39.94827},"positions":[{"title":"Sr. Android developer"},{"title":"Sr. Java developer"},{"title":"Ruby on Rails Web Developer"}],"state":"PA","county":"Philadelphia"},
{"company":"Susquehanna International Group","url":"https://careers.sig.com/","webSiteUrl":"http://sig.com/","address":"401 City Avenue, Bala Cynwyd, PA 19004","geo":{"longitude":-75.213322,"latitude":40.008582},"positions":[{"title":"Junior Technical Support Analyst"},{"title":"QlikView Developer"},{"title":"Software Engineering Internship Program"},{"title":"Junior Systems Administrator (Data Center)"},{"title":"Software Developer"},{"title":"Software Developer - Middleware"},{"title":"Business Analyst/Project Manager"},{"title":"FPGA Engineer"},{"title":"Technical Support Analyst"},{"title":"Telecom Client Support Analyst"},{"title":"Senior VMware Engineer"},{"title":"Software Developer - Clearing and Positions"},{"title":"Software Engineer - Production Engineering"},{"title":"Software Developer - C++"},{"title":"Messaging Engineer (Middleware)"},{"title":"Linux Engineer"},{"title":"Technical Support Analyst (Trading Floor)"},{"title":"Technology Associate: Software Engineering Development Program"},{"title":"Junior FPGA Engineer"},{"title":"Software Developer- Operations"},{"title":"Software Developer - SOT Services"},{"title":"Technology Co-op"},{"title":"Junior Technical Support Engineer"},{"title":"Junior Telecom Client Support Analyst"},{"title":"Systems & Network Administrator (Data Center)"},{"title":"Technical Business Analyst"},{"title":"Software Developer – Proprietary Trading Services"},{"title":"Software Developer - Instruments Team"},{"title":"Software Developer- TORQ"},{"title":"Quantitative Developer - Backtesting and Research Computing "}],"state":"PA","county":"Philadelphia"},
{"company":"Syapse","url":"http://www.syapse.com/about/careers/","webSiteUrl":"http://www.syapse.com/","address":"Philadelphia, PA","geo":{"longitude":-75.203371,"latitude":40.07231},"positions":[{"title":"Customer Solutions Software Engineer"}],"state":"PA","county":"Philadelphia"},
{"company":"Think Brownstone","url":"https://www.thinkbrownstone.com/careers/","webSiteUrl":"https://www.thinkbrownstone.com/","address":"111 South 15th Street, Mezzanine, Philadelphia, PA 19102","geo":{"longitude":-75.165716,"latitude":39.950745},"positions":[{"title":"Experience Designer - Contractor"},{"title":"Senior Project Manager"},{"title":"UX & Visual Design Contractors"},{"title":"UX Designer"},{"title":"Web Developer"},{"title":"Web Developer (Contract)"}],"state":"PA","county":"Philadelphia"},
{"company":"Thomson Reuters","url":"https://toc.taleo.net/careersection/2/moresearch.ftl?iniurl.src=CWS-10140","webSiteUrl":"http://thomsonreuters.com/","address":"1500 Spring Garen Street, Philadelphia, PA 19130","geo":{"longitude":-75.163112,"latitude":39.962595},"positions":[{"title":"QA Engineer"},{"title":"Senior Director, Sales Training & Development"},{"title":"Technology Consultant"}],"state":"PA","county":"Philadelphia"},
{"company":"Thoughtbot","url":"https://thoughtbot.com/jobs","webSiteUrl":"https://thoughtbot.com/","address":"2401 Walnut St, Suite 102, Philadelphia, PA 19103","geo":{"longitude":-75.179508,"latitude":39.95109},"positions":[{"title":"Development Director, Mobile"}],"state":"PA","county":"Philadelphia"},
{"company":"Ticketleap","url":"http://ticketleap.theresumator.com/","webSiteUrl":"http://ticketleap.com/","address":"2401 Walnut Street, Suite 502, Philadelphia, PA 19103","geo":{"longitude":-75.179508,"latitude":39.95124},"positions":[{"title":"Software Engineer"}],"state":"PA","county":"Philadelphia"},
{"company":"Tivipley","url":"https://angel.co/tivipley/jobs","webSiteUrl":"http://www.tivipley.com/","address":"2600 w. Legiht Ave., Philadelphia, PA 19100","geo":{"longitude":-75.174103,"latitude":39.996284},"positions":[{"title":"Web Developer"}],"state":"PA","county":"Philadelphia"},
{"company":"URBN","url":"http://urbn.com/career/","webSiteUrl":"http://urbn.com/","address":"5000 South Broad St, Philadelphia, PA 19112-1495","geo":{"longitude":-75.176112,"latitude":39.889369},"positions":[{"title":"Senior Network Engineer"},{"title":"DevOps Engineer"},{"title":"Production Support Manager - Ecommerce"},{"title":"Microsoft Engineer"},{"title":"Store Systems Operations Manager"},{"title":"Project Manager - Reporting Systems"},{"title":"IT CRM Business Analyst"},{"title":"Project Manager"},{"title":"Linux Administration Store Technology"},{"title":"ETL Engineer"},{"title":"OMS Business Analyst"},{"title":"Project Manager"},{"title":"Data Scientist"}],"state":"PA","county":"Philadelphia"},
{"company":"Velora Studios","url":"http://www.velorastudios.com/jobs","webSiteUrl":"http://www.velorastudios.com/","address":"Philadelphia","geo":{"longitude":-75.203371,"latitude":40.07231},"positions":[{"title":"Ruby on Rails Lead Programmer"},{"title":"Web Developer"},{"title":"Project Manager"}],"state":"PA","county":"Philadelphia"},
{"company":"Vistar Media","url":"http://www.vistarmedia.com/careers","webSiteUrl":"http://www.vistarmedia.com/","address":"332 S Smedley St, Philadelphia, PA 19103","geo":{"longitude":-75.1686654651,"latitude":39.9471276977},"positions":[{"title":"Software Engineer"}],"state":"PA","county":"Philadelphia"},
{"company":"WebLinc Corp.","url":"http://www.weblinc.com/company/careers/","webSiteUrl":"http://www.weblinc.com/","address":"22 South 3rd Street Second Floor Philadelphia, PA 19106","geo":{"longitude":-75.1457715,"latitude":39.9497525},"positions":[{"title":".NET Lead Developer"},{"title":"Sr. Visual Designer"},{"title":"Ruby On Rails Developer"},{"title":"Front-End Developer"},{"title":"User Experience Designer"},{"title":"Sr. Project Manager"},{"title":"Project Manager"}],"state":"PA","county":"Philadelphia"},
{"company":"Wildbit","url":"http://wildbit.com/jobs","webSiteUrl":"http://wildbit.com/","address":"22 N 3rd St, Philadelphia, PA 19106","geo":{"longitude":-75.1457279,"latitude":39.9508689},"positions":[{"title":"Quality Assurance Engineer"}],"state":"PA","county":"Philadelphia"},
{"company":"Willis Towers Watson","url":"https://willis-towers-watson.jobs.net/search?facetcitystate=philadelphia%2Cpa","webSiteUrl":"https://www.willistowerswatson.com/","address":"1500 Market St #22E, Philadelphia, PA 19102","geo":{"longitude":-75.1771446,"latitude":39.9377613},"positions":[{"title":"Software Developer (.NET)"}],"state":"PA","county":"Philadelphia"},
{"company":"Zivtech","url":"https://www.zivtech.com/about/employment","webSiteUrl":"https://www.zivtech.com/","address":"The Philadelphia Building 1315 Walnut St, Suite 1500, Philadelphia, PA, 19107","geo":{"longitude":-75.1628294,"latitude":39.9491672},"positions":[{"title":"Drupal Developers and Themers"}],"state":"PA","county":"Philadelphia"},
{"company":"Zoomer","url":"https://jobs.lever.co/zoomer","webSiteUrl":"http://www.zoomerdelivery.com/","address":"Philadelphia, PA","geo":{"longitude":-75.203371,"latitude":40.07231},"positions":[{"title":"Backend Engineer"}],"state":"PA","county":"Philadelphia"}
]