[
  {
    "company": "160over90",
    "url": "http://www.160over90.com/careers/",
    "webSiteUrl": "http://www.160over90.com/",
    "address": "1 South Broad Street, 10th Floor, Philadelphia, PA 19107",
    "geo": {
      "latitude": 39.951741,
      "longitude": -75.163514
    },
    "positions": [
      {
        "title": "Group Account Director"
      },
      {
        "title": "Account Supervisor"
      },
      {
        "title": "Account Director"
      },
      {
        "title": "Motion Graphics Designer"
      },
      {
        "title": "Video Editor"
      },
      {
        "title": "Production Artist"
      },
      {
        "title": "Production Manager"
      },
      {
        "title": "Creative Director"
      },
      {
        "title": "Senior Copywriter"
      },
      {
        "title": "Drupal Developer"
      }
    ],
    "state": "pa",
    "county": "philadelphia"
  },
  {
    "company": "50onRed",
    "url": "http://50onred.theresumator.com/?utm_source=github",
    "webSiteUrl": "http://50onred.com/",
    "address": "2929 Arch St, Philadelphia, PA 19104",
    "geo": {
      "latitude": 39.956848137931,
      "longitude": -75.18091562069
    },
    "positions": [
      {
        "title": "Data Scientist"
      },
      {
        "title": "Senior Software Engineer"
      },
      {
        "title": "Media Buyer"
      },
      {
        "title": "UX Designer"
      },
      {
        "title": "Sales Executive"
      }
    ],
    "state": "pa",
    "county": "philadelphia"
  },
  {
    "company": "AWeber Communications",
    "url": "http://www.aweber.jobs/",
    "webSiteUrl": "http://www.aweber.com/",
    "address": "1100 Manor Drive, Chalfont PA, 18914",
    "geo": {
      "latitude": 40.268983,
      "longitude": -75.222586
    },
    "positions": [
      {
        "title": "Front End Engineer"
      },
      {
        "title": "QA Automation Engineer"
      },
      {
        "title": "Senior Operations Engineer"
      },
      {
        "title": "Senior Software Engineer"
      },
      {
        "title": "Software Engineer"
      },
      {
        "title": "Team Lead - Platform Services Engineering"
      },
      {
        "title": "Team Lead - Web Experience"
      },
      {
        "title": "Technical Project Manager"
      }
    ],
    "state": "pa",
    "county": "bucks"
  },
  {
    "company": "AboutOne",
    "url": "http://www.aboutone.com/jobs/",
    "webSiteUrl": "http://www.aboutone.com/",
    "address": "26 Raffaela Drive, Malvern, PA 19355",
    "geo": {
      "latitude": 40.039942,
      "longitude": -75.5103515
    },
    "positions": [
      {
        "title": "SENIOR iOS DEVELOPER"
      },
      {
        "title": "QUALITY ASSURANCE ENGINEER"
      },
      {
        "title": "SENIOR SOFTWARE ENGINEER"
      }
    ],
    "state": "pa",
    "county": "chester"
  },
  {
    "company": "AgileTrailblazers",
    "url": "http://www.agiletrailblazers.com/careers/",
    "webSiteUrl": "http://www.agiletrailblazers.com/",
    "address": "630 Freedom Business Center, 3rd Floor, King of Prussia, PA 19406",
    "geo": {
      "latitude": 40.092432,
      "longitude": -75.41177
    },
    "positions": [],
    "state": "pa",
    "county": "montgomery"
  },
  {
    "company": "Al DÃ­a",
    "url": "http://aldianews.com/pages/careers/34548",
    "webSiteUrl": "http://aldianews.com/",
    "address": "1835 Market St, Philadelphia, PA 19103",
    "geo": {
      "latitude": 39.9532393469,
      "longitude": -75.1705572449
    },
    "positions": [],
    "state": "pa",
    "county": "philadelphia"
  },
  {
    "company": "Allen & Gerritsen",
    "url": "http://www.a-g.com/careers/",
    "webSiteUrl": "http://www.a-g.com/",
    "address": "1619 Walnut St. Philadelphia, PA 19103",
    "geo": {
      "latitude": 39.9499277431,
      "longitude": -75.1677158144
    },
    "positions": [
      {
        "title": "Digital Project Manager"
      },
      {
        "title": "Project Manager"
      },
      {
        "title": "Social Strategist"
      },
      {
        "title": "Digital Media Supervisor"
      },
      {
        "title": "Senior Digital Media Planner"
      }
    ],
    "state": "pa",
    "county": "philadelphia"
  },
  {
    "company": "Alura Business Solutions",
    "url": "http://www.alura.com/about.php",
    "webSiteUrl": "http://www.alura.com/",
    "address": "1000 Germantown Pike, Suite C4, Plymouth Meeting, PA 19462",
    "geo": {
      "latitude": 40.129261,
      "longitude": -75.297043
    },
    "positions": [
      {
        "title": "Network Administrator"
      }
    ],
    "state": "pa",
    "county": "montgomery"
  },
  {
    "company": "AppNexus Inc",
    "url": "http://www.appnexus.com/en/company/careers/open-roles",
    "webSiteUrl": "http://www.appnexus.com/",
    "address": "625 Ridge Pike, Building A Suite 200, Conshohocken, PA 19428",
    "geo": {
      "latitude": 40.09644,
      "longitude": -75.29872
    },
    "positions": [
      {
        "title": "Senior Software Engineer"
      }
    ],
    "state": "pa",
    "county": "montgomery"
  },
  {
    "company": "ApprenNet",
    "url": "http://info.apprennet.com/jobs/",
    "webSiteUrl": "http://info.apprennet.com/",
    "address": "1007 E Abington Ave, Wyndmoor, PA 19038",
    "geo": {
      "latitude": 40.0839338571,
      "longitude": -75.191686898
    },
    "positions": [
      {
        "title": "Director of Corporate Sales"
      }
    ],
    "state": "pa",
    "county": "montgomery"
  },
  {
    "company": "Aramark",
    "url": "https://allcareers-aramark.icims.com/jobs/search?ss=1&searchLocation=12781-12822-",
    "webSiteUrl": "http://www.aramark.com/",
    "address": "Philadelphia",
    "geo": {
      "latitude": 40.07231,
      "longitude": -75.203371
    },
    "positions": [
      {
        "title": "Associate Vice President, Security & Compliance"
      },
      {
        "title": "Manager, Windows Engineering/Implementations"
      },
      {
        "title": "Sr. Technical Consultant/Data Architect"
      }
    ],
    "state": "pa",
    "county": "philadelphia"
  },
  {
    "company": "Arc Intermedia",
    "url": "http://www.arcintermedia.com/company/careers/",
    "webSiteUrl": "http://www.arcintermedia.com/",
    "address": "1150 First Ave., Suite 501, King of Prussia, PA 19406",
    "geo": {
      "latitude": 40.0950185455,
      "longitude": -75.4155636667
    },
    "positions": [
      {
        "title": "Entry/Mid-Level Inbound Marketing Manager Position"
      },
      {
        "title": "Junior Front-end Web Developer/Web Designer"
      },
      {
        "title": "Senior Level SEO Position"
      },
      {
        "title": "Entry-Mid Level SEO Position"
      },
      {
        "title": "Part-time Experienced SEO Professional"
      },
      {
        "title": "Umbraco ASP.NET Developer"
      }
    ],
    "state": "pa",
    "county": "montgomery"
  },
  {
    "company": "Archer Group",
    "url": "http://www.archer-group.com/careers.html",
    "webSiteUrl": "http://www.archer-group.com/",
    "address": "233 N King St, Wilmington, DE 19801",
    "geo": {
      "latitude": 39.739341,
      "longitude": -75.551174
    },
    "positions": [
      {
        "title": "Application Developer"
      },
      {
        "title": "Senior Application Developer"
      },
      {
        "title": "Senior Sitecore Developer"
      },
      {
        "title": "UX Openings"
      },
      {
        "title": "Mid-Level UX Designer"
      }
    ],
    "state": "de",
    "county": "new castle"
  },
  {
    "company": "Arcisphere Technologies",
    "type": [],
    "url": "http://arcisphere.com/careers/",
    "webSiteUrl": "http://arcisphere.com/",
    "address": "Silver Lake Executive Campus, 41 University Drive, Suite 400, Newtown, PA 18940",
    "geo": {
      "latitude": 40.222927,
      "longitude": -74.905772
    },
    "positions": [],
    "state": "pa",
    "county": "bucks"
  },
  {
    "company": "Arcweb Technologies",
    "url": "https://arcweb.co/careers/",
    "webSiteUrl": "https://arcweb.co/",
    "address": "234 Market Street, 5th Floor, Philadelphia, PA 19106",
    "geo": {
      "latitude": 39.9499438006,
      "longitude": -75.1449411502
    },
    "positions": [
      {
        "title": "Android Developer"
      },
      {
        "title": "Business Operations Intern"
      },
      {
        "title": "Java Engineer"
      },
      {
        "title": "Senior Software Engineer"
      },
      {
        "title": "Software Architect"
      },
      {
        "title": "Software Project Manager"
      }
    ],
    "state": "pa",
    "county": "philadelphia"
  },
  {
    "company": "Arora Engineers, Inc.",
    "url": "http://www.aroraengineers.com/careers.asp",
    "webSiteUrl": "http://www.aroraengineers.com/",
    "address": "1601 Walnut Street, Suite 512, Philadelphia, PA 19102",
    "geo": {
      "latitude": 39.950012,
      "longitude": -75.167689
    },
    "positions": [
      {
        "title": "Mechanical Engineers"
      },
      {
        "title": "Electrical Engineers"
      },
      {
        "title": "Special Systems/Telecommunications Specialists"
      },
      {
        "title": "Fire Protection/Life Safety Engineers"
      },
      {
        "title": "Project Managers"
      },
      {
        "title": "Facilities Maintenance Technicians"
      },
      {
        "title": "Construction Managers"
      },
      {
        "title": "CAD Designers/Operators"
      }
    ],
    "state": "pa",
    "county": "philadelphia"
  },
  {
    "company": "Aspect Consulting",
    "url": "http://www.aspect-consulting.com/careers.aspx",
    "webSiteUrl": "http://www.aspect-consulting.com/",
    "address": "20140 Valley Forge Circle, King of Prussia, PA 19406",
    "geo": {
      "latitude": 40.105065,
      "longitude": -75.412618
    },
    "positions": [
      {
        "title": "Programmer Analyst/.NET Developer"
      },
      {
        "title": "System Administrator, SME"
      }
    ],
    "state": "pa",
    "county": "montgomery"
  },
  {
    "company": "Azavea",
    "url": "http://jobs.azavea.com/",
    "webSiteUrl": "http://www.azavea.com/",
    "address": "340 N 12th St, Suite 402, Philadelphia, PA",
    "geo": {
      "latitude": 39.9587179412,
      "longitude": -75.1583954412
    },
    "positions": [
      {
        "title": "Operations Engineer"
      },
      {
        "title": "Software Engineer - Civic Apps Team"
      },
      {
        "title": "Software Engineer - Geospatial Insights Team"
      },
      {
        "title": "Software Engineer - GeoTrellis Team"
      }
    ],
    "state": "pa",
    "county": "philadelphia"
  },
  {
    "company": "B Lab",
    "url": "http://slackatwork.com/company/B+Lab/",
    "webSiteUrl": "http://www.bcorporation.net/",
    "address": "155 East Lancaster Avenue, 2nd Floor, Wayne, PA 19087",
    "geo": {
      "latitude": 40.043971,
      "longitude": -75.385869
    },
    "positions": [
      {
        "title": "Jr. Web Application Developer"
      }
    ],
    "state": "pa",
    "county": "delaware"
  },
  {
    "company": "BOLT ON TECHNOLOGY",
    "url": "http://boltontechnology.com/category/careers/",
    "webSiteUrl": "http://www.boltontechnology.com/",
    "address": "1105 Industrial Blvd., Southampton, PA 18966-4160",
    "geo": {
      "latitude": 40.16228,
      "longitude": -75.040384
    },
    "positions": [
      {
        "title": "Customer Support Technician"
      },
      {
        "title": "Microsoft Software Developer"
      }
    ],
    "state": "pa",
    "county": "bucks"
  },
  {
    "company": "BTB Security",
    "url": "http://www.btbsecurity.com/who-we-are/job-opportunities",
    "webSiteUrl": "http://www.btbsecurity.com/",
    "address": "3 Bala Plaza, Suite 701, Bala Cynwyd, PA 19004",
    "geo": {
      "latitude": 40.009488,
      "longitude": -75.218509
    },
    "positions": [
      {
        "title": "RADAR Analyst"
      }
    ],
    "state": "pa",
    "county": "montgomery"
  },
  {
    "company": "Billy Penn",
    "url": "https://billypenn.com/jobs/",
    "webSiteUrl": "https://billypenn.com/",
    "address": "15th, 30 S 15th St, Philadelphia, PA 19102",
    "geo": {
      "latitude": 39.949553,
      "longitude": -75.165939
    },
    "positions": [
      {
        "title": "Freelance Developers"
      }
    ],
    "state": "pa",
    "county": "philadelphia"
  },
  {
    "company": "BioBots",
    "type": [
      "Startup"
    ],
    "url": "https://angel.co/biobots/jobs",
    "webSiteUrl": "https://www.biobots.io/",
    "address": "Philadelphia, PA",
    "geo": {
      "latitude": 40.07231,
      "longitude": -75.203371
    },
    "positions": [
      {
        "title": "Software Engineer"
      }
    ],
    "state": "pa",
    "county": "philadelphia"
  },
  {
    "company": "Biomeme, Inc.",
    "url": "http://www.biomeme.com/careers",
    "webSiteUrl": "http://www.biomeme.com/",
    "address": "2025 Washington Avenue",
    "geo": {
      "latitude": 39.9390814898,
      "longitude": -75.1767853469
    },
    "positions": [],
    "state": "pa",
    "county": "philadelphia"
  },
  {
    "company": "Blackfynn",
    "url": "http://www.blackfynn.com/careers/",
    "webSiteUrl": "http://www.blackfynn.com/",
    "address": "123 N 3rd St 2nd Floor Philadelphia, PA 19106",
    "geo": {
      "latitude": 39.952821,
      "longitude": -75.145047
    },
    "positions": [
      {
        "title": "Full Stack Engineer"
      },
      {
        "title": "Front-end Developer"
      }
    ],
    "state": "pa",
    "county": "philadelphia"
  },
  {
    "company": "Bluecadet",
    "url": "http://www.bluecadet.com/contact/careers/",
    "webSiteUrl": "http://www.bluecadet.com/",
    "address": "1526 Frankford Ave, Philadelphia, PA 19125",
    "geo": {
      "latitude": 39.9735053244,
      "longitude": -75.1338803439
    },
    "positions": [
      {
        "title": "Designer"
      },
      {
        "title": "Senior Interactive Designer"
      }
    ],
    "state": "pa",
    "county": "philadelphia"
  },
  {
    "company": "Boomi",
    "url": "http://www.boomi.com/company/careers",
    "webSiteUrl": "http://www.boomi.com/",
    "address": "801 Cassatt Road Suite 111 Berwyn, PA 19312",
    "geo": {
      "latitude": 40.062366,
      "longitude": -75.456169
    },
    "positions": [
      {
        "title": "Software Develoment Engineer"
      },
      {
        "title": "Software Engineer Director"
      },
      {
        "title": "Software Engineer Java"
      },
      {
        "title": "Software QA Staff Engineer"
      }
    ],
    "state": "pa",
    "county": "chester"
  },
  {
    "company": "Braxton Science & Technology Group",
    "url": "http://bstg.hirecentric.com/jobs/",
    "webSiteUrl": "http://bstgllc.com/",
    "address": "Moorestown, NJ",
    "geo": {
      "latitude": 39.968882,
      "longitude": -74.948886
    },
    "positions": [
      {
        "title": "Jr. Software Engineer - BMD"
      },
      {
        "title": "Mid Software Engineer - BMD"
      },
      {
        "title": "Sr. Software Engineer - BMD"
      }
    ],
    "state": "nj",
    "county": "burlington"
  },
  {
    "company": "BresslerGroup",
    "url": "http://www.bresslergroup.com/about/#jobs",
    "webSiteUrl": "http://www.bresslergroup.com/",
    "address": "7th floor, 1216 Arch St, Philadelphia, PA 19107",
    "geo": {
      "latitude": 39.951735,
      "longitude": -75.158654
    },
    "positions": [
      {
        "title": "Junior Graphic Designer"
      },
      {
        "title": "Senior Product Development Engineer"
      },
      {
        "title": "Interaction Designer"
      },
      {
        "title": "Software/Firmware Developer"
      },
      {
        "title": "Product Development Engineer"
      },
      {
        "title": "Electrical Engineer"
      },
      {
        "title": "Industrial Design Internship"
      }
    ],
    "state": "pa",
    "county": "philadelphia"
  },
  {
    "company": "Brian Communications",
    "url": "http://www.briancom.com/careers",
    "webSiteUrl": "http://www.briancom.com/",
    "address": "200 Four Falls Corporate Center, Suite 100, Conshohocken, PA 19428",
    "geo": {
      "latitude": 40.066641,
      "longitude": -75.306219
    },
    "positions": [
      {
        "title": "Digital Project Manager"
      },
      {
        "title": "Frontend Developer"
      },
      {
        "title": "Director of Web Development"
      },
      {
        "title": "Summer 2016 Intern- Strategy and Business Development"
      },
      {
        "title": "Summer 2016 Creative Intern"
      },
      {
        "title": "Summer 2016 Intern- Project Management"
      },
      {
        "title": "Summer 2016 Intern- Integrated Marketing"
      },
      {
        "title": "Summer 2016 Intern- Analytics"
      },
      {
        "title": "Summer 2016 Public Relations Intern"
      },
      {
        "title": "Creative Director"
      }
    ],
    "state": "pa",
    "county": "montgomery"
  },
  {
    "company": "BrickSimple LLC",
    "url": "http://bricksimple.com/",
    "webSiteUrl": "http://bricksimple.com/",
    "address": "22 S Main St, Doylestown, PA 18901",
    "geo": {
      "latitude": 40.309501,
      "longitude": -75.1301983333
    },
    "positions": [
      {
        "title": "Web Application Developer"
      },
      {
        "title": "Mobile Application Developer"
      }
    ],
    "state": "pa",
    "county": "bucks"
  },
  {
    "company": "Brio Solutions",
    "url": "http://www.briosolutions.com/About/Careers.aspx",
    "webSiteUrl": "http://www.briosolutions.com/",
    "address": "455 Pennsylvania Avenue, Suite 136, Fort Washington, PA 19034",
    "geo": {
      "latitude": 40.135976,
      "longitude": -75.20793
    },
    "positions": [
      {
        "title": ".NET Software Developers (All Levels)"
      }
    ],
    "state": "pa",
    "county": "montgomery"
  },
  {
    "company": "Brolik",
    "url": "http://brolik.com/careers",
    "webSiteUrl": "http://brolik.com/",
    "address": "421 N. 7th St., Suite 701, Philadelphia PA 19123",
    "geo": {
      "latitude": 39.9591977619,
      "longitude": -75.1502415238
    },
    "positions": [],
    "state": "pa",
    "county": "philadelphia"
  },
  {
    "company": "Brownstein Group",
    "url": "http://www.brownsteingroup.com/careers/",
    "webSiteUrl": "http://www.brownsteingroup.com/",
    "address": "215 South Broad Street, Philadelphia, PA 19107",
    "geo": {
      "latitude": 39.9485219589,
      "longitude": -75.1646539375
    },
    "positions": [
      {
        "title": "Production Artist"
      }
    ],
    "state": "pa",
    "county": "philadelphia"
  },
  {
    "company": "BuLogics",
    "url": "http://bulogics.com/about-us/jobs/",
    "webSiteUrl": "http://bulogics.com/",
    "address": "3721 Midvale Ave, Philadelphia, PA 19129",
    "geo": {
      "latitude": 40.00971845,
      "longitude": -75.19331115
    },
    "positions": [
      {
        "title": "Lead Firmware Engineer"
      },
      {
        "title": "Firmware Developer"
      },
      {
        "title": "Cross-Platform Developer"
      }
    ],
    "state": "pa",
    "county": "philadelphia"
  },
  {
    "company": "CLVmetrics",
    "url": "http://jobs.lever.co/clvmetrics",
    "webSiteUrl": "http://www.clvmetrics.com/",
    "address": "4040 Locust St, Philadelphia, PA",
    "geo": {
      "latitude": "39.953097",
      "longitude": "-75.204864"
    },
    "positions": [
      {
        "title": "Backend Engineer"
      },
      {
        "title": "Frontend Engineer"
      },
      {
        "title": "Full Stack Engineer"
      }
    ],
    "state": "pa",
    "county": "philadelphia"
  },
  {
    "company": "CardConnect",
    "url": "https://www.cardconnect.com/contact/job-openings/",
    "webSiteUrl": "https://www.cardconnect.com/",
    "address": "1000 Continental Dr Suite 600, King of Prussia, PA 19406",
    "geo": {
      "latitude": 40.081367,
      "longitude": -75.399611
    },
    "positions": [
      {
        "title": "Oracle ETL/Database Developer"
      },
      {
        "title": "Human Resources Generalist"
      },
      {
        "title": "Enterprise Marketing Manager"
      },
      {
        "title": "Director | Enterprise Accounts"
      },
      {
        "title": "Product Content Coordinator"
      },
      {
        "title": "Software Engineer (Java)"
      },
      {
        "title": "JavaScript Developer"
      },
      {
        "title": "Senior Java Software Engineer"
      },
      {
        "title": "Customer Service Representative"
      }
    ],
    "state": "pa",
    "county": "montgomery"
  },
  {
    "company": "Cerner",
    "url": "http://cerner.com/About_Cerner/Careers/",
    "webSiteUrl": "http://cerner.com/",
    "address": "51 Valley Stream Parkway, Malvern, PA 19355-1406",
    "geo": {
      "latitude": 40.060103,
      "longitude": -75.522087
    },
    "positions": [],
    "state": "pa",
    "county": "chester"
  },
  {
    "company": "Chariot Solutions",
    "url": "http://chariotsolutions.com/who-we-are/careers/",
    "webSiteUrl": "http://chariotsolutions.com/",
    "address": "515 Pennsylvania Ave #202, Fort Washington, PA 19034",
    "geo": {
      "latitude": 40.134146,
      "longitude": -75.2061795
    },
    "positions": [
      {
        "title": "Scala Developers"
      },
      {
        "title": "Sr. Java/Spring Developers"
      },
      {
        "title": "Mobile Developers"
      }
    ],
    "state": "pa",
    "county": "montgomery"
  },
  {
    "company": "ChatterBlast Media",
    "url": "http://chatterblast.com/careers/",
    "webSiteUrl": "http://chatterblast.com/",
    "address": "1315 Walnut Street, Suite 800, Philadelphia, PA 19107",
    "geo": {
      "latitude": 39.9491672,
      "longitude": -75.1628294
    },
    "positions": [
      {
        "title": "Account Manager"
      }
    ],
    "state": "pa",
    "county": "philadelphia"
  },
  {
    "company": "Circulate",
    "url": "http://www.circulate.com/jobs/index.html",
    "webSiteUrl": "http://www.circulate.com/",
    "address": "200 S. Broad Street, Suite 915",
    "geo": {
      "latitude": 39.949345,
      "longitude": -75.164338
    },
    "positions": [],
    "state": "pa",
    "county": "philadelphia"
  },
  {
    "company": "Clinical Ink",
    "url": "https://careers.smartrecruiters.com/ClinicalInk",
    "webSiteUrl": "http://www.clinicalink.com/",
    "address": "110 Gibraltar Road, Suite 150, Horsham, PA 19044",
    "geo": {
      "latitude": 40.171473,
      "longitude": -75.130956
    },
    "positions": [
      {
        "title": ".Net Senior Engineer"
      },
      {
        "title": ".NET/SQL Developer"
      }
    ],
    "state": "pa",
    "county": "montgomery"
  },
  {
    "company": "Cloudamize",
    "url": "http://www.cloudamize.com/careers/",
    "webSiteUrl": "http://www.cloudamize.com/",
    "address": "1735 Market St Suite 2502",
    "geo": {
      "latitude": 39.9530423469,
      "longitude": -75.1689862653
    },
    "positions": [
      {
        "title": "Solutions Engineer"
      },
      {
        "title": "Full Stack Software Engineer â Java"
      },
      {
        "title": "DevOps Engineer"
      }
    ],
    "state": "pa",
    "county": "philadelphia"
  },
  {
    "company": "Cloudmine Inc.",
    "url": "https://jobs.lever.co/cloudmine",
    "webSiteUrl": "https://cloudmine.me/",
    "address": "1315 Walnut Street, Philadelphia PA, 19107",
    "geo": {
      "latitude": 39.9491672,
      "longitude": -75.1628294
    },
    "positions": [],
    "state": "pa",
    "county": "philadelphia"
  },
  {
    "company": "Club OS",
    "type": [
      "Startup"
    ],
    "url": "https://angel.co/club-os/jobs",
    "webSiteUrl": "https://www.club-os.com/",
    "address": "1650 Arch St, #1906, Philadelphia, PA 19103",
    "geo": {
      "latitude": 39.9549139592,
      "longitude": -75.1671930612
    },
    "positions": [
      {
        "title": "Senior Java Sofware Engineer"
      },
      {
        "title": "Front End Web Developer"
      },
      {
        "title": "Software Engineer"
      }
    ],
    "state": "pa",
    "county": "philadelphia"
  },
  {
    "company": "Clutch",
    "url": "https://www.clutch.com/careers/",
    "webSiteUrl": "https://www.clutch.com/",
    "address": "201 S Maple St #250, Ambler, PA 19002",
    "geo": {
      "latitude": 40.1561585849,
      "longitude": -75.2278333396
    },
    "positions": [
      {
        "title": "SENIOR DATA SCIENTIST"
      },
      {
        "title": "PRODUCT MANAGER"
      }
    ],
    "state": "pa",
    "county": "montgomery"
  },
  {
    "company": "Compliance Implementation Services",
    "url": "http://www.cisbydeloitte.com/careers/",
    "webSiteUrl": "http://www.cis-partners.com/",
    "address": "3809 West Chester Pike, Suite 100, Newtown Square, PA 19073",
    "geo": {
      "latitude": 39.99049,
      "longitude": -75.411689
    },
    "positions": [
      {
        "title": "BI Analytics and Visualization Specialist"
      },
      {
        "title": "Client Account Manager - Life Sciences"
      },
      {
        "title": "Data Software Engineer"
      },
      {
        "title": "Senior Software Engineer"
      },
      {
        "title": "Senior Software Engineer"
      },
      {
        "title": "Quality Assurance Manager"
      },
      {
        "title": "Manager Government Pricing and Contracts"
      },
      {
        "title": "Security & Information Assurance Manager"
      },
      {
        "title": "Business Analyst - Life Sciences"
      },
      {
        "title": "Quality Assurance Engineer"
      },
      {
        "title": "Software Engineer"
      },
      {
        "title": "Software Engineer"
      },
      {
        "title": "Sr. IT System Administrator"
      }
    ],
    "state": "pa",
    "county": "delaware"
  },
  {
    "company": "Conigent",
    "url": "http://www.conigent.com/contact/#openings-list",
    "webSiteUrl": "http://www.conigent.com/",
    "address": "226 Haddonfield Road, Suite 300, Cherry Hill, NJ 08002",
    "geo": {
      "latitude": 39.952584,
      "longitude": -75.165222
    },
    "positions": [
      {
        "title": "Infor M3 Project Manager"
      },
      {
        "title": "Infor M3 Functional Consultant - Procurement Warehousing & Logistics"
      },
      {
        "title": "Infor M3 Functional Consultant - Financial Management Implementation"
      },
      {
        "title": "Infor M3 Technical Consultant - Integration (MEC/ION/EDI)"
      },
      {
        "title": "Infor M3 Technical Consultant - Development (Java/MAK/Mashups/Smart Office SDK)"
      },
      {
        "title": "Infor M3 Functional Consultant - Equipment Service Management & Rental"
      },
      {
        "title": "Infor M3 Functional Consultant - Customer Sales Management"
      },
      {
        "title": "M3 Functional Consultant - Planning & Manufacturing Operations"
      }
    ],
    "state": "pa",
    "county": "philadelphia"
  },
  {
    "company": "Copycat Tech, Inc",
    "url": "http://careers.stackoverflow.com/jobs?company=Copycat",
    "webSiteUrl": "http://www.wecopycat.com/",
    "address": "Philadelphia, PA",
    "geo": {
      "latitude": 39.952584,
      "longitude": -75.165222
    },
    "positions": [
      {
        "title": "iOS Engineer"
      }
    ],
    "state": "pa",
    "county": "philadelphia"
  },
  {
    "company": "CoreDial",
    "url": "https://careers-coredial.icims.com/jobs/search?ss=1&hashed=-435708982",
    "webSiteUrl": "http://coredial.com/",
    "address": "Hillcrest I, 751 Arbor Way, Suite 150, Blue Bell PA, 19422",
    "geo": {
      "latitude": 40.140902,
      "longitude": -75.285697
    },
    "positions": [
      {
        "title": "Lead Generation Assistant (LGA)"
      },
      {
        "title": "VoIP Support Technician Level II"
      },
      {
        "title": "VoIP Support Technician - Level I"
      },
      {
        "title": "UI/UX Designer"
      },
      {
        "title": "SQL DBA - MySQL"
      },
      {
        "title": "Product Owner"
      },
      {
        "title": "Financial Analyst â FP&A Analyst"
      },
      {
        "title": "Customer Support Coordinator"
      },
      {
        "title": "Business Analyst"
      },
      {
        "title": "Applications Support Lead"
      },
      {
        "title": "Applications Support Engineer"
      },
      {
        "title": "Principal Engineer"
      },
      {
        "title": "Business Development Associate"
      },
      {
        "title": "Data Architect"
      },
      {
        "title": "Associate Software Developer"
      },
      {
        "title": "Sr. Software Developer"
      },
      {
        "title": "Principle Software Engineer"
      },
      {
        "title": "Systems Architect"
      },
      {
        "title": "Software Developer"
      }
    ],
    "state": "pa",
    "county": "montgomery"
  },
  {
    "company": "Curalate",
    "url": "https://boards.greenhouse.io/curalate#.VkAHsa6rRE5",
    "webSiteUrl": "http://www.curalate.com/",
    "address": "2401 Walnut St #502, Philadelphia, PA 19103",
    "geo": {
      "latitude": 39.95109,
      "longitude": -75.179508
    },
    "positions": [
      {
        "title": "Product Manager"
      },
      {
        "title": "UX Designer"
      },
      {
        "title": "DevOps Engineer"
      },
      {
        "title": "Front End (Solutions) Engineer"
      },
      {
        "title": "Lead Support Engineer"
      },
      {
        "title": "Software Engineer"
      }
    ],
    "state": "pa",
    "county": "philadelphia"
  },
  {
    "company": "Curotec",
    "type": [],
    "url": "http://www.curotec.com/about-us/careers/",
    "webSiteUrl": "http://www.curotec.com/",
    "address": "101 E 8th Ave, Suite #105, Conshohocken, PA 19428",
    "geo": {
      "latitude": 40.078935,
      "longitude": -75.299649
    },
    "positions": [
      {
        "title": "Sales and marketing"
      },
      {
        "title": "LAMP stack developer"
      },
      {
        "title": "Project manager"
      },
      {
        "title": "UI Developer"
      }
    ],
    "state": "pa",
    "county": "montgomery"
  },
  {
    "company": "D4 Creative Group",
    "url": "http://www.d4creative.com/careers",
    "webSiteUrl": "http://www.d4creative.com/",
    "address": "4646 Umbria Street",
    "geo": {
      "latitude": 40.0305332308,
      "longitude": -75.2300390769
    },
    "positions": [
      {
        "title": "Copywriter"
      },
      {
        "title": "Designer"
      },
      {
        "title": "Front-End Developer"
      },
      {
        "title": "Project Manager"
      },
      {
        "title": "PHP Developer"
      }
    ],
    "state": "pa",
    "county": "philadelphia"
  },
  {
    "company": "Deacom, Inc",
    "type": [],
    "url": "http://deacom.com/ViewPage/21/deacom-inc-company-careers",
    "webSiteUrl": "http://deacom.com/",
    "address": "950 West Valley Road, Suite 3000, Wayne, PA 19087",
    "geo": {
      "latitude": 40.067907,
      "longitude": -75.427966
    },
    "positions": [
      {
        "title": "Inside Sales Rep"
      },
      {
        "title": "Senior ERP Product Specialist"
      },
      {
        "title": "Software Developer"
      },
      {
        "title": "ERP Product Specialist"
      }
    ],
    "state": "pa",
    "county": "chester"
  },
  {
    "company": "Delphic Digital",
    "url": "http://www.delphicdigital.com/about/careers/open-positions",
    "webSiteUrl": "http://www.delphicdigital.com/",
    "address": "116 Shurs Lane, 2nd Floor, Philadelphia, PA 19127",
    "geo": {
      "latitude": 40.022712,
      "longitude": -75.217571
    },
    "positions": [
      {
        "title": "Sitecore Web Developer"
      },
      {
        "title": "Systems Admin / DevOps Architect"
      }
    ],
    "state": "pa",
    "county": "philadelphia"
  },
  {
    "company": "Diagnostic Driving, LLC",
    "url": "http://www.diagnosticdriving.com/careers/",
    "webSiteUrl": "http://www.diagnosticdriving.com/",
    "address": "3401 Market Street, 2nd Floor, Philadelphia, PA 19104",
    "geo": {
      "latitude": 39.956175,
      "longitude": -75.191729
    },
    "positions": [
      {
        "title": "Game Developer",
        "datePosted": "2016-02-11"
      }
    ],
    "state": "pa",
    "county": "philadelphia"
  },
  {
    "company": "DramaFever",
    "url": "http://www.dramafever.com/company/careers.html",
    "webSiteUrl": "http://www.dramafever.com/",
    "address": "1717 Arch St, Suite 601, Philadelphia, PA",
    "geo": {
      "latitude": 39.9546511633,
      "longitude": -75.1650889796
    },
    "positions": [
      {
        "title": "Android Developer"
      },
      {
        "title": "iOS Developer"
      },
      {
        "title": "Network Operations Manager"
      }
    ],
    "state": "pa",
    "county": "philadelphia"
  },
  {
    "company": "Dronecast",
    "url": "http://www.dronecast.com/careers/",
    "webSiteUrl": "http://www.dronecast.com/",
    "address": "1700 Market Street, Suite 1005, Philadelphia PA",
    "geo": {
      "latitude": 39.952974,
      "longitude": -75.168444
    },
    "positions": [
      {
        "title": "Graphic Designe"
      },
      {
        "title": "IOS Developer"
      },
      {
        "title": "Web Developer"
      },
      {
        "title": "Social Media Manager"
      }
    ],
    "state": "pa",
    "county": "philadelphia"
  },
  {
    "company": "EPAM",
    "url": "http://www.epam.com/careers",
    "webSiteUrl": "http://www.epam.com/",
    "address": "101 E 8th Ave #201, Conshohocken, PA 19428",
    "geo": {
      "latitude": 40.079189,
      "longitude": -75.299617
    },
    "positions": [
      {
        "title": "Senior Project Manager"
      },
      {
        "title": "Senior Visual Designer"
      }
    ],
    "state": "pa",
    "county": "montgomery"
  },
  {
    "company": "Eastern Standard",
    "url": "http://easternstandard.com/pages/careers",
    "webSiteUrl": "http://easternstandard.com/",
    "address": "261 Old York Rd. Suite 617 Jenkintown, PA 19046",
    "geo": {
      "latitude": 40.093339,
      "longitude": -75.125276
    },
    "positions": [
      {
        "title": "SENIOR GRAPHIC DESIGNER"
      },
      {
        "title": "DEVELOPER"
      }
    ],
    "state": "pa",
    "county": "montgomery"
  },
  {
    "company": "Economy League of Greater Philadelphia",
    "url": "http://economyleague.org/about-us/join-our-team",
    "webSiteUrl": "http://economyleague.org/",
    "address": "230 S Broad St, Philadelphia PA 19102",
    "geo": {
      "latitude": 39.94878,
      "longitude": -75.1644585
    },
    "positions": [
      {
        "title": "PROJECT MANAGER"
      }
    ],
    "state": "pa",
    "county": "philadelphia"
  },
  {
    "company": "Elsevier",
    "url": "https://www.elsevier.com/about/careers/tech",
    "webSiteUrl": "https://www.elsevier.com/",
    "address": "1600 John F Kennedy Blvd #1800, Philadelphia, PA 19103",
    "geo": {
      "latitude": 39.9537238,
      "longitude": -75.1671666
    },
    "positions": [
      {
        "title": "Commercial Director, Patient Engagement"
      },
      {
        "title": "Director, Cloud/Hosting, Infrastructure & Operations"
      },
      {
        "title": "Operations Director (End User Infrastructure)"
      },
      {
        "title": "Product Manager, Assessment"
      },
      {
        "title": "Quality Engineering Lead"
      },
      {
        "title": "Senior Custom Content Specialist"
      },
      {
        "title": "Software Engineer"
      },
      {
        "title": "Software Engineer - Machine Learning"
      },
      {
        "title": "User Experience Lead"
      },
      {
        "title": "VP Infrastructure & Operations"
      }
    ],
    "state": "pa",
    "county": "philadelphia"
  },
  {
    "_comment": "Seems to be EPAM Systems now. Already have a file for them.",
    "company": "Empathy Lab",
    "url": "http://www.epam.com/careers",
    "webSiteUrl": "http://empathylab.epam.com/",
    "address": "101 East 8th Ave, Suite 201, Conshohocken, PA 19428",
    "geo": {
      "latitude": 40.079039,
      "longitude": -75.299617
    },
    "positions": [
      {
        "title": "Creative Director"
      },
      {
        "title": "Senior UX Designer"
      }
    ],
    "state": "pa",
    "county": "montgomery"
  },
  {
    "company": "Evoke Health",
    "url": "http://www.evokehealth.com/Careers",
    "webSiteUrl": "http://www.evokehealth.com/",
    "address": "1 South Broad St., 13th Floor, Philadelphia, PA",
    "geo": {
      "latitude": 39.951591,
      "longitude": -75.163514
    },
    "positions": [
      {
        "title": "User Experience (UX) Designer"
      },
      {
        "title": "Senior QA Analyst"
      },
      {
        "title": "Project Manager / Sr Project Manager"
      },
      {
        "title": "Copywriter"
      },
      {
        "title": "Art Director"
      },
      {
        "title": "Account Supervisor"
      },
      {
        "title": "Account Executive"
      },
      {
        "title": "Account Director"
      },
      {
        "title": "Proofreader"
      },
      {
        "title": "Analytics Associate"
      }
    ],
    "state": "pa",
    "county": "philadelphia"
  },
  {
    "company": "Evolve IP",
    "url": "http://www.evolveip.net/about/careers",
    "webSiteUrl": "http://www.evolveip.net/",
    "address": "989 Old Eagle School Rd, Wayne, PA 19087",
    "geo": {
      "latitude": 40.076770625,
      "longitude": -75.41092975
    },
    "positions": [
      {
        "title": "Project Manager"
      },
      {
        "title": "Platform Engineer, Cloud Computing"
      }
    ],
    "state": "pa",
    "county": "chester"
  },
  {
    "company": "Famehouse",
    "url": "http://famehouse.net/category/job-listings/",
    "webSiteUrl": "http://famehouse.net/",
    "address": "Philadelphia, PA",
    "geo": {
      "latitude": 40.07231,
      "longitude": -75.203371
    },
    "positions": [
      {
        "title": "FRONT-END DEVELOPER"
      }
    ],
    "state": "pa",
    "county": "philadelphia"
  },
  {
    "company": "FastFig",
    "type": [
      "Startup"
    ],
    "url": "https://angel.co/fastfig/jobs",
    "webSiteUrl": "https://www.fastfig.com/",
    "address": "Philadelphia, PA",
    "geo": {
      "latitude": 40.07231,
      "longitude": -75.203371
    },
    "positions": [
      {
        "title": "Front End Developer"
      }
    ],
    "state": "pa",
    "county": "philadelphia"
  },
  {
    "company": "Fynydd",
    "url": "https://fynydd.com/careers/",
    "webSiteUrl": "https://fynydd.com/",
    "address": "630 Freedom Business Center Drive, King of Prussia, PA 19406",
    "geo": {
      "latitude": 40.0922677347,
      "longitude": -75.4162122857
    },
    "positions": [
      {
        "title": "Senior Developer"
      }
    ],
    "state": "pa",
    "county": "montgomery"
  },
  {
    "company": "GLOBO",
    "url": "https://globolanguage.hyrell.com/UI/Views/Applicant/VirtualStepCareers.aspx",
    "webSiteUrl": "http://www.helloglobo.com/",
    "address": "500 W Office Center Drive, Fort Washington, PA 19034",
    "geo": {
      "latitude": 40.141835,
      "longitude": -75.173581
    },
    "positions": [
      {
        "title": "DevOps Engineer"
      },
      {
        "title": "Quality Assurance Coordinator: Bilingual English-Spanish"
      }
    ],
    "state": "pa",
    "county": "montgomery"
  },
  {
    "company": "Garfield Group",
    "url": "http://garfieldgroup.com/careers",
    "webSiteUrl": "http://garfieldgroup.com/",
    "address": "60 Blacksmith Road, Newtown PA 18940",
    "geo": {
      "latitude": 40.222709625,
      "longitude": -74.915183875
    },
    "positions": [
      {
        "title": "Copywriter"
      },
      {
        "title": "Art Director"
      },
      {
        "title": "Web Developer"
      },
      {
        "title": "Copywriter Intern"
      },
      {
        "title": "Graphic Design Intern"
      }
    ],
    "state": "pa",
    "county": "bucks"
  },
  {
    "company": "GatherDocs",
    "url": "http://jobs.gatherdocs.com/",
    "webSiteUrl": "http://gatherdocs.com/",
    "address": "4040 Locust St, Philadelphia, PA 19104",
    "geo": {
      "latitude": 39.9531008333,
      "longitude": -75.2038928333
    },
    "positions": [
      {
        "title": "PHP Web Developer"
      },
      {
        "title": "Software Engineer"
      }
    ],
    "state": "pa",
    "county": "philadelphia"
  },
  {
    "company": "GoEmerchant",
    "type": [],
    "url": "http://www.goemerchant.com/careers.aspx",
    "webSiteUrl": "http://www.goemerchant.com/",
    "address": "1 Mall Drive, Suite 515, Cherry Hill, NJ 08002",
    "geo": {
      "latitude": 39.942654,
      "longitude": -75.025045
    },
    "positions": [
      {
        "title": "Technical Support Representative"
      }
    ],
    "state": "nj",
    "county": "camden"
  },
  {
    "company": "GovDelivery",
    "url": "https://www.govdelivery.com/company/careers/",
    "webSiteUrl": "https://www.govdelivery.com/",
    "address": "Philadelphia, PA",
    "geo": {
      "latitude": 39.952584,
      "longitude": -75.165222
    },
    "positions": [],
    "state": "pa",
    "county": "philadelphia"
  },
  {
    "company": "Graphene Frontiers",
    "url": "http://graphenefrontiers.com/careers/",
    "webSiteUrl": "http://graphenefrontiers.com/",
    "address": "3624 Market St. FL 5th, Philadelphia, PA 19104",
    "geo": {
      "latitude": 39.9562402245,
      "longitude": -75.1946339592
    },
    "positions": [
      {
        "title": "Biosensor Research and Development Technician"
      },
      {
        "title": "Database Developer / Programmer"
      },
      {
        "title": "Senior Semiconductor Device Engineer"
      }
    ],
    "state": "pa",
    "county": "philadelphia"
  },
  {
    "company": "Greenlane Search Marketing, LLC",
    "url": "http://www.greenlaneseo.com/jobs/",
    "webSiteUrl": "http://www.greenlaneseo.com/",
    "address": "Philadelphia, PA",
    "geo": {
      "latitude": 39.952584,
      "longitude": -75.165222
    },
    "positions": [
      {
        "title": "Graphic / Web Designer"
      },
      {
        "title": "Web Analyst"
      }
    ],
    "state": "pa",
    "county": "philadelphia"
  },
  {
    "company": "Guru",
    "url": "https://www.getguru.com/jobs/",
    "webSiteUrl": "https://www.getguru.com/",
    "address": "32 S Strawberry Street, 3rd Floor, Philadelphia, PA 19106",
    "geo": {
      "latitude": 39.9490966709,
      "longitude": -75.1446795469
    },
    "positions": [],
    "state": "pa",
    "county": "philadelphia"
  },
  {
    "company": "Halfpenny Technologies",
    "url": "http://www.halfpenny.com/careers.html",
    "webSiteUrl": "http://www.halfpenny.com/",
    "address": "960 Harvest Drive, Building B Suite 200, Blue Bell, PA 19422",
    "geo": {
      "latitude": 40.152771,
      "longitude": -75.283326
    },
    "positions": [
      {
        "title": "Integration Developer"
      },
      {
        "title": "Quality Assurance (QA) Analyst"
      }
    ],
    "state": "pa",
    "county": "montgomery"
  },
  {
    "company": "Happy Cog",
    "url": "http://www.happycog.com/",
    "webSiteUrl": "http://www.happycog.com/",
    "address": "1315 Walnut St, Philadelphia, PA 19107",
    "geo": {
      "latitude": 39.949591,
      "longitude": -75.16289
    },
    "positions": [
      {
        "title": "Designer",
        "datePosted": "2016-01-05"
      },
      {
        "title": "Senior Designer",
        "datePosted": "2016-01-05"
      }
    ],
    "state": "pa",
    "county": "philadelphia"
  },
  {
    "company": "HealthVerity",
    "url": "http://healthverity.com/careers-2",
    "webSiteUrl": "http://healthverity.com/",
    "address": "100 North 20th Street, Suite 203, Philadelphia, PA  19103",
    "geo": {
      "latitude": 39.95591,
      "longitude": -75.17309
    },
    "positions": [
      {
        "title": "GIS Developer"
      },
      {
        "title": "Back End Software Developer"
      },
      {
        "title": "Front End Software Developer"
      },
      {
        "title": "Operations Engineer / DevOps"
      }
    ],
    "state": "pa",
    "county": "philadelphia"
  },
  {
    "company": "Here's My Chance",
    "url": "http://heresmychance.com/careers/",
    "webSiteUrl": "http://heresmychance.com/",
    "address": "121 S. 13th Street 4th Floor Philadelphia, PA 19107",
    "geo": {
      "latitude": 39.949836,
      "longitude": -75.161949
    },
    "positions": [
      {
        "title": "Copywriter"
      },
      {
        "title": "Freelance Designer"
      }
    ],
    "state": "pa",
    "county": "philadelphia"
  },
  {
    "company": "I-SITE",
    "url": "http://www.i-site.com/blog",
    "webSiteUrl": "http://www.i-site.com/",
    "address": "15 South 3rd St Suite 200, Philadelphia, PA, 19106",
    "geo": {
      "latitude": 39.9496157,
      "longitude": -75.1476798
    },
    "positions": [
      {
        "title": "Digital Project Manager"
      },
      {
        "title": "Winter Interns",
        "datePosted": "2016-01-13"
      }
    ],
    "state": "pa",
    "county": "philadelphia"
  },
  {
    "company": "IT Pros - Philadelphia",
    "url": "http://www.itprosphilly.com/careers/",
    "webSiteUrl": "http://www.itprosphilly.com/",
    "address": "1 Brown Street, #1604, Philadelphia, PA 19123",
    "geo": {
      "latitude": 39.962402,
      "longitude": -75.13767
    },
    "positions": [
      {
        "title": ".NET Developer"
      }
    ],
    "state": "pa",
    "county": "philadelphia"
  },
  {
    "company": "Inspire Energy",
    "url": "http://www.inspireenergy.com/join-our-team#powers",
    "webSiteUrl": "http://www.inspireenergy.com/",
    "address": "Philadelphia, PA",
    "geo": {
      "latitude": 39.952584,
      "longitude": -75.165222
    },
    "positions": [
      {
        "title": "Backend Developer - VC Backed Startup"
      },
      {
        "title": "Full Stack Developer - VC Backed Startup"
      },
      {
        "title": "Web Developer - VC Backed Startup"
      }
    ],
    "state": "pa",
    "county": "philadelphia"
  },
  {
    "company": "InstaMed",
    "url": "http://www.instamed.com/about/careers/",
    "webSiteUrl": "http://www.instamed.com/",
    "address": "1880 JFK Boulevard  12th floor, Philadelphia, PA 19103",
    "geo": {
      "latitude": 39.952896,
      "longitude": -75.174298
    },
    "positions": [
      {
        "title": "Engagement Lead"
      },
      {
        "title": "User Experience Researcher"
      },
      {
        "title": "Program Delivery Manager"
      }
    ],
    "state": "pa",
    "county": "philadelphia"
  },
  {
    "company": "IntegriChain",
    "url": "http://www.integrichain.com/about-us/careers/",
    "webSiteUrl": "http://www.integrichain.com/",
    "address": "1628 JFK Boulevard, Suite 300, Philadelphia, PA 19103",
    "geo": {
      "latitude": 39.953705,
      "longitude": -75.167953
    },
    "positions": [
      {
        "title": "Senior Test Engineer"
      }
    ],
    "state": "pa",
    "county": "philadelphia"
  },
  {
    "company": "InterNACHI",
    "url": "https://internachi.recruitee.com/",
    "webSiteUrl": "https://www.nachi.org/",
    "address": "Philadelphia, PA",
    "geo": {
      "latitude": 39.952584,
      "longitude": -75.165222
    },
    "positions": [
      {
        "title": "Senior Web Developer (PHP, MySQL, JS, HTML, CSS)"
      }
    ],
    "state": "pa",
    "county": "philadelphia"
  },
  {
    "company": "Intuitive Company",
    "url": "http://intuitivecompany.com/careers/",
    "webSiteUrl": "http://intuitivecompany.com/",
    "address": "3 Rector St #2, Philadelphia, PA 19127",
    "geo": {
      "latitude": 40.0240484551,
      "longitude": -75.22196085
    },
    "positions": [
      {
        "title": "User Experience Researcher"
      },
      {
        "title": "Program Delivery Manager"
      }
    ],
    "state": "pa",
    "county": "philadelphia"
  },
  {
    "company": "Inverse Paradox",
    "url": "https://www.inverseparadox.com/careers/",
    "webSiteUrl": "https://www.inverseparadox.com/",
    "address": "133 Bellevue Ave., Penndel, PA 19047",
    "geo": {
      "latitude": 40.1584053469,
      "longitude": -74.9120337959
    },
    "positions": [
      {
        "title": "PHP Developer â Magento"
      },
      {
        "title": "WordPress Developer"
      }
    ],
    "state": "pa",
    "county": "bucks"
  },
  {
    "company": "J2 Solutions",
    "url": "http://www.j2-solutions.com/career.aspx",
    "webSiteUrl": "http://www.j2-solutions.com/",
    "address": "660 American Avenue, Suite 104, King of Prussia, PA 19406",
    "geo": {
      "latitude": 40.094423,
      "longitude": -75.394149
    },
    "positions": [
      {
        "title": "Application Developers - .NET"
      },
      {
        "title": "Application Developers - Java"
      }
    ],
    "state": "pa",
    "county": "montgomery"
  },
  {
    "company": "Jefferson",
    "url": "http://www.jefferson.edu/human-resources/careers.html",
    "webSiteUrl": "http://www.jefferson.edu/",
    "address": "1025 Walnut Street, Philadelphia, PA 19107",
    "geo": {
      "latitude": 39.948784,
      "longitude": -75.158186
    },
    "positions": [
      {
        "title": "Application Development Specialist - IS&T - V69 - 9207191"
      },
      {
        "title": "Multimedia Instructional Designer - IS&T - V67 - 9207192"
      },
      {
        "title": "Data Scientist - IS&T - V70 - 9207105"
      },
      {
        "title": "Security Analyst II - IS&T - V67 - 9207104"
      },
      {
        "title": "Senior Voice Communications Technician - V66 - 9207102"
      },
      {
        "title": "Lead Client Solutions Analyst - 9205587"
      },
      {
        "title": "Windows System Administrator - V68 - 9206962"
      },
      {
        "title": "Domain Architect - 9205737"
      },
      {
        "title": "Security Analyst II - IS&T - 9204646"
      },
      {
        "title": "Application Development Specialist - IS&T - 9205225"
      },
      {
        "title": "Oracle Database Administrator - 9204645"
      },
      {
        "title": "Sr. Storage Administrator - 9204643"
      },
      {
        "title": "End-Point System Administrator (V67) - 9206277"
      },
      {
        "title": "Virtualization Administrator (V68) - IS&T - 9206155"
      },
      {
        "title": "IT Infrastructure Project Manager (V70) - 9206157"
      },
      {
        "title": "Senior Apple Systems Administrator (V68) - 9206161"
      },
      {
        "title": "Web Developer - 9206162"
      },
      {
        "title": "Director of IS&T Security & Enterprise Security Officer - 9205586"
      }
    ],
    "state": "pa",
    "county": "philadelphia"
  },
  {
    "company": "KPInterface, Inc.",
    "url": "http://www.kpinterface.com/careers.html",
    "webSiteUrl": "http://www.kpinterface.com/",
    "address": "477 N. Lewis Road, Suite 210, Limerick, PA 19468",
    "geo": {
      "latitude": 40.209139,
      "longitude": -75.544583
    },
    "positions": [
      {
        "title": "IT Consultant â Mid-Level"
      },
      {
        "title": "IT Consultant â Junior Level"
      },
      {
        "title": "Computer Tech Support Internship"
      }
    ],
    "state": "pa",
    "county": "montgomery"
  },
  {
    "company": "Kepler Group",
    "url": "http://www.keplergrp.com/careers/",
    "webSiteUrl": "http://www.keplergrp.com/",
    "address": "Philadelphia, PA",
    "geo": {
      "latitude": 39.952584,
      "longitude": -75.165222
    },
    "positions": [],
    "state": "pa",
    "county": "philadelphia"
  },
  {
    "company": "KickUp",
    "type": [
      "Startup"
    ],
    "url": "https://angel.co/kickup-1/jobs",
    "webSiteUrl": "http://kickup.co/",
    "address": "Philadelphia, PA",
    "geo": {
      "latitude": 40.07231,
      "longitude": -75.203371
    },
    "positions": [
      {
        "title": "Data visualization intern"
      },
      {
        "title": "Front-end engineer"
      },
      {
        "title": "Full-stack developer"
      }
    ],
    "state": "pa",
    "county": "philadelphia"
  },
  {
    "company": "Lamps.com Inc",
    "url": "http://jobs.interactivecommercegroup.com/",
    "webSiteUrl": "http://www.lamps.com/",
    "address": "1217 Sansom St, Floor 8, Philadelphia, PA 19107",
    "geo": {
      "latitude": 39.949923,
      "longitude": -75.161334
    },
    "positions": [
      {
        "title": "eCommerce Merchandiser"
      },
      {
        "title": "Full Stack Magento Developer"
      },
      {
        "title": "Product Data Specialist"
      }
    ],
    "state": "pa",
    "county": "philadelphia"
  },
  {
    "company": "LeadiD",
    "url": "http://www.leadid.com/about-us/join-our-team/open-positions",
    "webSiteUrl": "http://www.leadid.com/",
    "address": "201 S Maple St, Ambler, PA, 19002",
    "geo": {
      "latitude": 40.1561585849,
      "longitude": -75.2278333396
    },
    "positions": [
      {
        "title": "Data Scientist"
      },
      {
        "title": "Senior Software Engineer"
      }
    ],
    "state": "pa",
    "county": "montgomery"
  },
  {
    "company": "Leadnomics",
    "url": "http://www.leadnomics.com/careers/",
    "webSiteUrl": "http://www.leadnomics.com/",
    "address": "2929 Arch St, Philadelphia, PA 19104",
    "geo": {
      "latitude": 39.9568481379,
      "longitude": -75.1809156207
    },
    "positions": [
      {
        "title": "Software Engineer"
      },
      {
        "title": "Software Engineer (node.js, java, php, aws)"
      }
    ],
    "state": "pa",
    "county": "philadelphia"
  },
  {
    "company": "Lemma",
    "url": "https://www.lem.ma/home/?page_id=70",
    "webSiteUrl": "https://www.lem.ma/",
    "address": "Philadelphia, PA",
    "geo": {
      "latitude": 40.07231,
      "longitude": -75.203371
    },
    "positions": [
      {
        "title": "Full stack Angular.js, Node.js developer"
      },
      {
        "title": "UX Developer"
      }
    ],
    "state": "pa",
    "county": "philadelphia"
  },
  {
    "company": "LevelUp",
    "url": "https://www.thelevelup.com/jobs",
    "webSiteUrl": "https://www.thelevelup.com/",
    "address": "1628 JFK Blvd., Philadelphia, PA",
    "geo": {
      "latitude": 39.953705,
      "longitude": -75.167953
    },
    "positions": [
      {
        "title": "Ruby on Rails Developer"
      },
      {
        "title": "iOS Developer"
      },
      {
        "title": "Sr iOS Developer"
      },
      {
        "title": "Sr Android Developer"
      }
    ],
    "state": "pa",
    "county": "philadelphia"
  },
  {
    "company": "Linode, LLC",
    "url": "https://www.linode.com/careers",
    "webSiteUrl": "https://www.linode.com/",
    "address": "Kings Hall, 2 Kings Highway West, Haddonfield, NJ 08033",
    "geo": {
      "latitude": 39.8958,
      "longitude": -75.036109
    },
    "positions": [
      {
        "title": "Linux Technical Support"
      },
      {
        "title": "Agile Project Manager (Scrum Master)"
      },
      {
        "title": "Technical Writer"
      },
      {
        "title": "Linux Network Engineer"
      },
      {
        "title": "Network Administrator"
      },
      {
        "title": "Linux Systems Engineer"
      },
      {
        "title": "Security Engineer"
      }
    ],
    "state": "nj",
    "county": "camden"
  },
  {
    "company": "M",
    "url": "http://agency-m.com/careers",
    "webSiteUrl": "http://agency-m.com/",
    "address": "217 Church Street, Philadelphia, PA 19106",
    "geo": {
      "latitude": 39.9507636529,
      "longitude": -75.1444120428
    },
    "positions": [],
    "state": "pa",
    "county": "philadelphia"
  },
  {
    "company": "MOD Worldwide",
    "url": "http://www.modworldwide.com/creative.html",
    "webSiteUrl": "http://www.modworldwide.com/",
    "address": "121 S Broad St, Philadelphia, PA 19107",
    "geo": {
      "latitude": 39.950696,
      "longitude": -75.1638900816
    },
    "positions": [
      {
        "title": "GRAPHIC DESIGNER"
      },
      {
        "title": "COPYWRITER"
      },
      {
        "title": "PROOFREADER/RESEARCH"
      }
    ],
    "state": "pa",
    "county": "philadelphia"
  },
  {
    "company": "MaassMedia, LLC",
    "url": "http://www.maassmedia.com/about-our-careers.php",
    "webSiteUrl": "http://www.maassmedia.com/",
    "address": "1880 JFK Blvd, Suite 201, Philadelphia, PA 19103",
    "geo": {
      "latitude": 39.954096,
      "longitude": -75.171007
    },
    "positions": [
      {
        "title": "Analytics Solutions Engineer"
      },
      {
        "title": "Consultant - Data Science/Reporting"
      }
    ],
    "state": "pa",
    "county": "philadelphia"
  },
  {
    "company": "Masterminds",
    "url": "http://mastermindsagency.com/#gigs",
    "webSiteUrl": "http://mastermindsagency.com/",
    "address": "1315 Walnut Street, Suite 300, Philadelphia, PA 19107",
    "geo": {
      "latitude": 39.9493152971,
      "longitude": -75.1626386191
    },
    "positions": [
      {
        "title": "Social Media Community Manager"
      },
      {
        "title": "Graphic Designer â Full time or Freelance"
      },
      {
        "title": "Creative Internships"
      },
      {
        "title": "Media Internship"
      }
    ],
    "state": "pa",
    "county": "philadelphia"
  },
  {
    "company": "Medecision",
    "url": "https://careers-medecision.icims.com/jobs/intro?hashed=-435743548",
    "webSiteUrl": "http://www.medecision.com/",
    "address": "550 E Swedesford Rd #220, Wayne, PA 19087",
    "geo": {
      "latitude": 40.0755407626,
      "longitude": -75.4241920791
    },
    "positions": [
      {
        "title": "Director, Data Management"
      },
      {
        "title": "Senior Director, Customer Marketing"
      },
      {
        "title": "Solution Architect, Senior"
      }
    ],
    "state": "pa",
    "county": "chester"
  },
  {
    "company": "MeetMe",
    "url": "http://www.meetme.com/apps/careers#careers-position",
    "webSiteUrl": "http://www.meetme.com/",
    "address": "100 Union Square Drive, New Hope, PA",
    "geo": {
      "latitude": 40.314,
      "longitude": -75.131903
    },
    "positions": [
      {
        "title": "Big Data Engineer"
      },
      {
        "title": "Software Architect, API"
      },
      {
        "title": "Sr. Android Engineer / Architect"
      },
      {
        "title": "Sr. iOS Developer / Architect"
      },
      {
        "title": "Sr. Software Developer (API)"
      },
      {
        "title": "QA Developer (Automation)"
      },
      {
        "title": "Sr. DevOps Engineer (Remote)"
      },
      {
        "title": "Website Content Review & Customer Support Specialist"
      }
    ],
    "state": "pa",
    "county": "bucks"
  },
  {
    "company": "MentorTech Ventures",
    "url": "http://www.mentortechventures.com/jobs",
    "webSiteUrl": "http://www.mentortechventures.com/",
    "address": "3624 Market Street, Suite 300, Philadelphia, PA",
    "geo": {
      "latitude": 39.9562402245,
      "longitude": -75.1946339592
    },
    "positions": [
      {
        "title": "iOS Developer"
      },
      {
        "title": "Ruby Developer"
      },
      {
        "title": "iOS Developer â Intern/Co-Op"
      },
      {
        "title": "Ruby Developer â Intern/Co-Op"
      },
      {
        "title": "UI/UX Design â Intern/Co-Op"
      }
    ],
    "state": "pa",
    "county": "philadelphia"
  },
  {
    "company": "Metropolitan Acoustics",
    "url": "http://metro-acoustics.com/careers",
    "webSiteUrl": "http://metro-acoustics.com/",
    "address": "40 West Evergreen Avenue Suite 108, Philadelphia, PA 19118",
    "geo": {
      "latitude": 40.0759209111,
      "longitude": -75.2081357556
    },
    "positions": [],
    "state": "pa",
    "county": "philadelphia"
  },
  {
    "company": "Momentum Dynamics",
    "url": "http://www.momentumdynamics.com/momentum-dynamics.html#careers",
    "webSiteUrl": "http://www.momentumdynamics.com/",
    "address": "3 Pennsylvania Avenue, Malvern, PA 19355",
    "geo": {
      "latitude": 40.0374198571,
      "longitude": -75.5168733857
    },
    "positions": [
      {
        "title": "Power Electronics Engineers"
      },
      {
        "title": "Senior Electronics Engineers"
      },
      {
        "title": "Electronics Engineers"
      },
      {
        "title": "Electronics Technicians"
      },
      {
        "title": "Embedded Software Engineers"
      }
    ],
    "state": "pa",
    "county": "chester"
  },
  {
    "company": "Monetate, Inc.",
    "url": "http://www.monetate.com/about/careers/#open-positions",
    "webSiteUrl": "http://www.monetate.com/",
    "address": "951 E. Hector Street, Conshohocken PA 19428",
    "geo": {
      "latitude": 40.0750470612,
      "longitude": -75.2904890204
    },
    "positions": [
      {
        "title": "Data Scientist"
      },
      {
        "title": "DevOps Engineer"
      },
      {
        "title": "Javascript Engineer"
      },
      {
        "title": "Software Engineer"
      },
      {
        "title": "Product Manager"
      },
      {
        "title": "Product Owner"
      }
    ],
    "state": "pa",
    "county": "montgomery"
  },
  {
    "company": "Morgan Lewis",
    "url": "https://sjobs.brassring.com/TGWebHost/home.aspx?partnerid=25936&siteid=5172",
    "webSiteUrl": "https://www.morganlewis.com/",
    "address": "1701 Market St Philadelphia",
    "geo": {
      "latitude": 39.952974,
      "longitude": -75.168444
    },
    "positions": [
      {
        "title": "365BR Business Intelligence Engineer"
      },
      {
        "title": "678BR Network Engineer (Infrastructure)"
      },
      {
        "title": "692BR Manager of Information Governance Compliance"
      },
      {
        "title": "585BR New Business Analyst"
      },
      {
        "title": "687BR Human Resources Coordinator"
      },
      {
        "title": "683BR Human Resources Coordinator"
      },
      {
        "title": "647BR SQL DBA Developer"
      },
      {
        "title": "682BR Human Resources Manager"
      },
      {
        "title": "415BR Business Operations Analyst"
      },
      {
        "title": "671BR Manager of Web Development"
      },
      {
        "title": "670BR Business Operations Analyst"
      },
      {
        "title": "653BR Communications Specialist"
      },
      {
        "title": "656BR Talent Acquisition Business Partner"
      },
      {
        "title": "610BR Manager of Professional Development"
      },
      {
        "title": "643BR Manager, Business Development & Marketing - Litigation"
      },
      {
        "title": "592BR Director-Business Development and Marketing"
      },
      {
        "title": "371BR Manager - Business Operations"
      }
    ],
    "state": "pa",
    "county": "philadelphia"
  },
  {
    "company": "Moven",
    "type": [
      "Startup"
    ],
    "url": "https://angel.co/moven/jobs",
    "webSiteUrl": "https://www.moven.com/",
    "address": "Philadelphia, PA",
    "geo": {
      "latitude": 40.07231,
      "longitude": -75.203371
    },
    "positions": [
      {
        "title": "Full Stack Engineer"
      },
      {
        "title": "Service Delivery Engineer"
      },
      {
        "title": "Senior UX Designer"
      },
      {
        "title": "Data Scientist"
      },
      {
        "title": "Data Analyst"
      },
      {
        "title": "Senior Mobile Engineer"
      }
    ],
    "state": "pa",
    "county": "philadelphia"
  },
  {
    "company": "Municibid",
    "url": "https://municibid.com/jobs/",
    "webSiteUrl": "https://municibid.com/",
    "address": "200 Barr Harbor Drive Suite 4, Conshohocken, PA 19428",
    "geo": {
      "latitude": 40.085953,
      "longitude": -75.115217
    },
    "positions": [],
    "state": "pa",
    "county": "montgomery"
  },
  {
    "company": "My Mobile ED",
    "type": [
      "Startup"
    ],
    "url": "https://angel.co/my-mobile-ed/jobs",
    "webSiteUrl": "http://mymobileed.com/",
    "address": "Philadelphia, PA",
    "geo": {
      "latitude": 40.07231,
      "longitude": -75.203371
    },
    "positions": [
      {
        "title": "Software Engineer"
      }
    ],
    "state": "pa",
    "county": "philadelphia"
  },
  {
    "company": "NRG Edge, LLC",
    "url": "http://nrg-edge.com/careers.html",
    "webSiteUrl": "http://nrg-edge.com/",
    "address": "5 Great Valley Parkway, Suite 210, Malvern, PA 19355 United States",
    "geo": {
      "latitude": 40.064788,
      "longitude": -75.533473
    },
    "positions": [
      {
        "title": "Lead Web Development Architect"
      },
      {
        "title": "UI Developer"
      },
      {
        "title": "Web Analyst / Tester"
      }
    ],
    "state": "pa",
    "county": "chester"
  },
  {
    "company": "Nasdaq OMX",
    "url": "https://careersus-nasdaq.icims.com/jobs/search?ss=1&searchLocation=12781-12822-philadelphia",
    "webSiteUrl": "http://business.nasdaq.com/",
    "address": "1900 Market St,Philadelphia, PA",
    "geo": {
      "latitude": 39.953368,
      "longitude": -75.171593
    },
    "positions": [
      {
        "title": "Product Management Sr Spec"
      },
      {
        "title": "Project Manager US Equities Group"
      }
    ],
    "state": "pa",
    "county": "philadelphia"
  },
  {
    "company": "National Constitution Center",
    "url": "http://constitutioncenter.org/about/careers/paid-positions/",
    "webSiteUrl": "http://constitutioncenter.org/",
    "address": "Independence Mall 525 Arch Street, Philadelphia, PA 19106",
    "geo": {
      "latitude": 39.950063,
      "longitude": -75.149022
    },
    "positions": [],
    "state": "pa",
    "county": "philadelphia"
  },
  {
    "company": "Netplus",
    "url": "http://thinknetplus.com/contact/#netplus-jobs",
    "webSiteUrl": "http://thinknetplus.com/",
    "address": "718 Arch St Suite #400S",
    "geo": {
      "latitude": 39.9529856531,
      "longitude": -75.1518336122
    },
    "positions": [
      {
        "title": "Interactive Designer"
      },
      {
        "title": "Social Media Community Manager"
      },
      {
        "title": "Search and Social Advertising Manager"
      },
      {
        "title": "Web Developer Full-Stack"
      },
      {
        "title": "Interactive Developer"
      },
      {
        "title": "Digital Project Manager"
      }
    ],
    "state": "pa",
    "county": "philadelphia"
  },
  {
    "company": "New York Code + Design Academy",
    "type": [
      "Startup"
    ],
    "url": "https://angel.co/new-york-code-design-academy-1/jobs",
    "webSiteUrl": "https://nycda.com/",
    "address": "30 South 17th Street, Philadelphia, PA 19103",
    "geo": {
      "latitude": 39.952215,
      "longitude": -75.169528
    },
    "positions": [
      {
        "title": "Web Development Instructor"
      }
    ],
    "state": "pa",
    "county": "philadelphia"
  },
  {
    "company": "Night Kitchen Interactive",
    "url": "http://www.whatscookin.com/about/careers",
    "webSiteUrl": "http://www.whatscookin.com/",
    "address": "411 South 2nd Street, Suite 200, Philadelphia, PA 19147",
    "geo": {
      "latitude": 39.942945848,
      "longitude": -75.1449762344
    },
    "positions": [
      {
        "title": "Creative Lead",
        "datePosted": "2015-07-28"
      },
      {
        "title": "Interactive Web Developer",
        "datePosted": "2015-07-28"
      }
    ],
    "state": "pa",
    "county": "philadelphia"
  },
  {
    "company": "Nimblelight",
    "url": "http://nimblelight.com/jobs/",
    "webSiteUrl": "http://nimblelight.com/",
    "address": "4355 Orchard St, Philadelphia PA, 19124",
    "geo": {
      "latitude": 40.0109041224,
      "longitude": -75.0858912041
    },
    "positions": [
      {
        "title": "Developer"
      }
    ],
    "state": "pa",
    "county": "philadelphia"
  },
  {
    "company": "O3 World",
    "url": "http://o3world.com/careers/",
    "webSiteUrl": "http://o3world.com/",
    "address": "1339 Frankford Avenue, Suite 3, Philadelphia, PA 19125",
    "geo": {
      "latitude": 39.9712247406,
      "longitude": -75.1342654346
    },
    "positions": [
      {
        "title": "UI / UX DESIGNER"
      },
      {
        "title": "IOS DEVELOPER"
      },
      {
        "title": "FULL STACK JAVASCRIPT DEVELOPER"
      },
      {
        "title": "FRONT-END DEVELOPER"
      },
      {
        "title": "WEB PROGRAMMER"
      }
    ],
    "state": "pa",
    "county": "philadelphia"
  },
  {
    "company": "Offshorent",
    "url": "http://offshorent.com/careers",
    "webSiteUrl": "http://offshorent.com/",
    "address": "1000 W. Valley Forge Circle. #110A. King Of Prussia, PA 19406",
    "geo": {
      "latitude": 40.1030152727,
      "longitude": -75.4137162727
    },
    "positions": [
      {
        "title": "WordPress developer"
      },
      {
        "title": "Business Development Lead"
      },
      {
        "title": "Senior Engineer"
      }
    ],
    "state": "pa",
    "county": "montgomery"
  },
  {
    "company": "Oncora Medical",
    "url": "https://oncoramedical.recruiterbox.com/",
    "webSiteUrl": "http://oncoramedical.com/",
    "address": "4040 Locust St, Philadelphia, PA 19104",
    "geo": {
      "latitude": 39.952883,
      "longitude": -75.204789
    },
    "positions": [
      {
        "title": "Data Engineer"
      },
      {
        "title": "Cloud Ops Engineer"
      },
      {
        "title": "Data Scientist"
      },
      {
        "title": "UX and Data Visualization Developer"
      }
    ],
    "state": "pa",
    "county": "philadelphia"
  },
  {
    "company": "P'unk Avenue",
    "url": "http://jobs.punkave.com/",
    "webSiteUrl": "http://punkave.com/",
    "address": "1168 E. Passyunk Avenue Philadelphia, PA 19147",
    "geo": {
      "latitude": 39.9345045143,
      "longitude": -75.1578163143
    },
    "positions": [
      {
        "title": "Front-End Developer"
      },
      {
        "title": "Full Stack Developer"
      }
    ],
    "state": "pa",
    "county": "philadelphia"
  },
  {
    "company": "PCS Trac",
    "url": "http://www.pcstrac.com/#!careers/cuev",
    "webSiteUrl": "http://www.pcstrac.com/",
    "address": "4250 Wissahickon Ave, Philadelphia, PA 19129",
    "geo": {
      "latitude": 40.0149365556,
      "longitude": -75.1698068384
    },
    "positions": [],
    "state": "pa",
    "county": "philadelphia"
  },
  {
    "company": "Pedrera Philadelphia Web Development",
    "url": "http://pedrera.com/about-us/careers",
    "webSiteUrl": "http://pedrera.com/",
    "address": "100 Mechanics Street, Doylestown, PA 18901",
    "geo": {
      "latitude": 40.3136617818,
      "longitude": -75.1289168909
    },
    "positions": [
      {
        "title": "Web Developer"
      }
    ],
    "state": "pa",
    "county": "bucks"
  },
  {
    "company": "PeopleLinx",
    "url": "http://peoplelinx.com/careers/",
    "webSiteUrl": "http://peoplelinx.com/",
    "address": "1835 Market Street, Philadelphia, PA 19103",
    "geo": {
      "latitude": 39.9532393469,
      "longitude": -75.1705572449
    },
    "positions": [
      {
        "title": "Lead Content Designer / Instructional Designer"
      },
      {
        "title": "Client Success Manager"
      },
      {
        "title": "Account Executive"
      }
    ],
    "state": "pa",
    "county": "philadelphia"
  },
  {
    "company": "PerPay Inc",
    "url": "http://perpay.com/careers.html",
    "webSiteUrl": "http://perpay.com/",
    "address": "Philadelphia, PA",
    "geo": {
      "latitude": 40.07231,
      "longitude": -75.203371
    },
    "positions": [
      {
        "title": "Engineers"
      }
    ],
    "state": "pa",
    "county": "philadelphia"
  },
  {
    "company": "Philadelphia Convention & Visitors Bureau PHLCVB",
    "url": "http://www.discoverphl.com/about-PHLCVB/employment/",
    "webSiteUrl": "http://www.discoverphl.com/",
    "address": "1700 Market St., Suite 3000 Philadelphia, PA 19103",
    "geo": {
      "latitude": 39.952974,
      "longitude": -75.168444
    },
    "positions": [
      {
        "title": "Marketing Specialist"
      }
    ],
    "state": "pa",
    "county": "philadelphia"
  },
  {
    "company": "Philadelphia Media Network",
    "url": "http://apsweb.philly.com/jobs/",
    "webSiteUrl": "http://www.philly.com/",
    "address": "801 Market Street, Suite 300, Philadelphia PA 19107",
    "geo": {
      "latitude": 39.951667,
      "longitude": -75.153737
    },
    "positions": [
      {
        "title": "Sales Planning Analyst"
      },
      {
        "title": "Outside Local Sales Representatives"
      },
      {
        "title": "Digital Advertising Sales Manager"
      },
      {
        "title": "Production Coordinator"
      },
      {
        "title": "Digital Audience Analyst"
      },
      {
        "title": "Product Associate"
      },
      {
        "title": "Co-Op Account Executive"
      },
      {
        "title": "Graphic Designer"
      },
      {
        "title": "Interactive Graphic Designer"
      },
      {
        "title": "Digital Reporting and Yield Specialist"
      },
      {
        "title": "Digital Campaign Manager"
      },
      {
        "title": "CRM Database Manager"
      },
      {
        "title": "Senior Market Research Analyst (Digital)"
      }
    ],
    "state": "pa",
    "county": "philadelphia"
  },
  {
    "company": "Philly Marketing Labs",
    "url": "http://www.phillymarketinglabs.com/join-our-team/",
    "webSiteUrl": "http://www.phillymarketinglabs.com/",
    "address": "224 Lansdowne Ave, Wayne, PA 19087",
    "geo": {
      "latitude": 40.040375898,
      "longitude": -75.3892247755
    },
    "positions": [
      {
        "title": "Web Marketing Project Manager"
      },
      {
        "title": "Organic Search Manager"
      },
      {
        "title": "Paid Search Manager"
      }
    ],
    "state": "pa",
    "county": "delaware"
  },
  {
    "company": "Picwell Inc",
    "url": "http://nerds.picwell.com/jobs/",
    "webSiteUrl": "http://picwell.com/",
    "address": "2200 Arch Street, Philadelphia, PA 19103",
    "geo": {
      "latitude": 39.955875,
      "longitude": -75.176907
    },
    "positions": [
      {
        "title": "Software Engineer"
      },
      {
        "title": "Data Engineer"
      },
      {
        "title": "Data Scientist (Production)"
      }
    ],
    "state": "pa",
    "county": "philadelphia"
  },
  {
    "company": "PipelineDeals",
    "url": "https://www.pipelinedeals.com/careers",
    "webSiteUrl": "https://www.pipelinedeals.com/",
    "address": "565 E. Swedesford Road, Suite 206, Wayne, PA 19087",
    "geo": {
      "latitude": 40.076011027,
      "longitude": -75.4230364054
    },
    "positions": [
      {
        "title": "Senior Product Manager"
      },
      {
        "title": "Customer Engagement Manager"
      },
      {
        "title": "Marketing Coordinator"
      },
      {
        "title": "Senior Software Engineer"
      },
      {
        "title": "Customer Ambassador"
      },
      {
        "title": "QA Analyst"
      }
    ],
    "state": "pa",
    "county": "chester"
  },
  {
    "company": "Plan Management Corp.",
    "url": "http://www.optiontrax.com/about-us/working-here/",
    "webSiteUrl": "http://www.optiontrax.com/",
    "address": "44 W. Lancaster Ave, Suite 145, Ardmore PA, 19003",
    "geo": {
      "latitude": 40.0086664118,
      "longitude": -75.2925611765
    },
    "positions": [],
    "state": "pa",
    "county": "montgomery"
  },
  {
    "company": "Plum Analytics",
    "url": "http://plumanalytics.com/about/careers/",
    "webSiteUrl": "http://plumanalytics.com/",
    "address": "808 Firethorn Circle, Dresher PA 19025",
    "geo": {
      "latitude": 40.1518441224,
      "longitude": -75.1554711633
    },
    "positions": [
      {
        "title": "Senior Engineer / Architect (Big Data)"
      },
      {
        "title": "Mid-Level Engineer (Data Acquisition)"
      },
      {
        "title": "Mid-level Java Engineer"
      }
    ],
    "state": "pa",
    "county": "montgomery"
  },
  {
    "company": "PromptWorks",
    "url": "http://www.promptworks.com/jobs/",
    "webSiteUrl": "http://www.promptworks.com/",
    "address": "1211 Chestnut St, Suite 400, Philadelphia PA, 19107",
    "geo": {
      "latitude": 39.9504152041,
      "longitude": -75.1603696122
    },
    "positions": [
      {
        "title": "Senior Software Engineer"
      },
      {
        "title": "Software Engineer"
      },
      {
        "title": "Senior Front-end Engineer"
      }
    ],
    "state": "pa",
    "county": "philadelphia"
  },
  {
    "company": "Pulsar Informatics",
    "url": "http://www.pulsarinformatics.com/about.html#anchor_positions",
    "webSiteUrl": "http://www.pulsarinformatics.com/",
    "address": "3401 Market Street, Philadelphia, PA 19104",
    "geo": {
      "latitude": 39.955843,
      "longitude": -75.191464
    },
    "positions": [
      {
        "title": "Senior Software Developer"
      }
    ],
    "state": "pa",
    "county": "philadelphia"
  },
  {
    "company": "Push10 Design",
    "url": "http://www.push10.com/blog/",
    "webSiteUrl": "http://www.push10.com/",
    "address": "125 NORTH 3RD ST, PHILA. PA 19106",
    "geo": {
      "latitude": 39.9528668,
      "longitude": -75.1450802
    },
    "positions": [],
    "state": "pa",
    "county": "philadelphia"
  },
  {
    "company": "RDA Corp",
    "url": "http://rdacorp.com/en/Careers/Current%20Openings",
    "webSiteUrl": "http://rdacorp.com/",
    "address": "101 Lindenwood Drive Suite 225 Malvern, PA 19355",
    "geo": {
      "latitude": 40.049973,
      "longitude": -75.528712
    },
    "positions": [
      {
        "title": "Account Executive - Digital Sales and Marketing"
      },
      {
        "title": "BI Contractor"
      },
      {
        "title": "SharePoint Contractor"
      },
      {
        "title": "Sitecore Developer"
      },
      {
        "title": "Digital Marketing Strategist"
      },
      {
        "title": "Cloud Developer Architect Contractor"
      }
    ],
    "state": "pa",
    "county": "chester"
  },
  {
    "company": "RJMetrics",
    "url": "https://rjmetrics.com/jobs/",
    "webSiteUrl": "https://rjmetrics.com/",
    "address": "1339 Chestnut Street Suite 1500 Philadelphia PA, 19107",
    "geo": {
      "latitude": 39.9507376667,
      "longitude": -75.1629786667
    },
    "positions": [
      {
        "title": "Data Analyst"
      },
      {
        "title": "Data Warehouse Analyst"
      },
      {
        "title": "Security Engineer"
      },
      {
        "title": "Senior Web Applications Engineer"
      }
    ],
    "state": "pa",
    "county": "philadelphia"
  },
  {
    "company": "Razorfish Health",
    "url": "https://publicis.taleo.net/careersection/phcg_external_career_section/jobsearch.ftl?keyword=razorfishhealth&searchExpanded=FALSE#",
    "webSiteUrl": "http://www.razorfishhealth.com/",
    "address": "100 Penn Square East, Philadelphia, PA 19107",
    "geo": {
      "latitude": 39.94491,
      "longitude": -75.159786
    },
    "positions": [],
    "state": "pa",
    "county": "philadelphia"
  },
  {
    "company": "Red Tettemer O'Connell + Partners",
    "url": "http://www.rtop.com/contact/",
    "webSiteUrl": "http://www.rtop.com/",
    "address": "1 S. Broad, 24th Floor, Philadelphia, PA",
    "geo": {
      "latitude": 39.951199,
      "longitude": -75.163487
    },
    "positions": [
      {
        "title": "COPYWRITER"
      },
      {
        "title": "ART DIRECTOR"
      },
      {
        "title": "APP DEVELOPER"
      },
      {
        "title": "WEB DEV INTERN"
      }
    ],
    "state": "pa",
    "county": "philadelphia"
  },
  {
    "company": "RegDesk",
    "type": [
      "Startup"
    ],
    "url": "https://angel.co/regdesk/jobs",
    "webSiteUrl": "http://www.regdesk.co/",
    "address": "Philadelphia, PA",
    "geo": {
      "latitude": 40.07231,
      "longitude": -75.203371
    },
    "positions": [
      {
        "title": "Developer"
      },
      {
        "title": "Front-End Intern"
      }
    ],
    "state": "pa",
    "county": "philadelphia"
  },
  {
    "company": "Relay",
    "url": "http://www.relaynetwork.com/careers/",
    "webSiteUrl": "http://www.relaynetwork.com/",
    "address": "201 king of prussia rd radnor pa 19087",
    "geo": {
      "latitude": 40.081206,
      "longitude": -75.388683
    },
    "positions": [
      {
        "title": "CLIENT PROJECT MANAGER"
      },
      {
        "title": "DATA ARCHITECT"
      },
      {
        "title": "DEVOPS MANAGER"
      },
      {
        "title": "FRONT-END DEVELOPER"
      },
      {
        "title": "SCRUM MASTER"
      },
      {
        "title": "SOFTWARE ENGINEER"
      },
      {
        "title": "SR. SALES EXECUTIVE"
      }
    ],
    "state": "pa",
    "county": "montgomery"
  },
  {
    "company": "Revzilla",
    "url": "http://www.revzilla.com/careers",
    "webSiteUrl": "http://www.revzilla.com/",
    "address": "4020 S 26th St, Philadelphia, PA 19112",
    "geo": {
      "latitude": 39.936679,
      "longitude": -75.187326
    },
    "positions": [
      {
        "title": "Manager, Digital Analytics and Insights"
      },
      {
        "title": "Manager, Usability and Research"
      },
      {
        "title": "Senior Product Designer"
      },
      {
        "title": "Search Engine Marketing (SEM) Manager"
      },
      {
        "title": "Digital Marketing Manager - Display/Media"
      },
      {
        "title": "Digital Content Manager - Editorial"
      },
      {
        "title": "RevZilla Video Production Coordinator"
      },
      {
        "title": "Web Developer"
      }
    ],
    "state": "pa",
    "county": "philadelphia"
  },
  {
    "company": "RightAction",
    "url": "http://rightaction.theresumator.com/",
    "webSiteUrl": "https://www.rightaction.com/",
    "address": "2929 Arch St, Philadelphia, PA 19104",
    "geo": {
      "latitude": 39.9568481379,
      "longitude": -75.1809156207
    },
    "positions": [
      {
        "title": "Software Engineer, Java"
      },
      {
        "title": "Software Engineer, Java + Ruby"
      }
    ],
    "state": "pa",
    "county": "philadelphia"
  },
  {
    "company": "Rock River Star",
    "type": [],
    "url": "http://rockriverstar.com/careers",
    "webSiteUrl": "http://rockriverstar.com/",
    "address": "202 Corner Ketch Road, Downingtown, PA 19335",
    "geo": {
      "latitude": 40.031643,
      "longitude": -75.750801
    },
    "positions": [
      {
        "title": "Creative Director"
      },
      {
        "title": "Lead Project Architect"
      },
      {
        "title": "Programmer / Developer"
      }
    ],
    "state": "pa",
    "county": "chester"
  },
  {
    "company": "SEER Interactive",
    "url": "http://www.seerinteractive.com/careers/",
    "webSiteUrl": "http://www.seerinteractive.com/",
    "address": "1033 N 2nd Street, Philadelphia, PA",
    "geo": {
      "latitude": 39.9672323333,
      "longitude": -75.1400423333
    },
    "positions": [
      {
        "title": "Digital Strategy Manager"
      },
      {
        "title": "Director of Business Strategy"
      },
      {
        "title": "Analytics Associate"
      },
      {
        "title": "Director of Paid Search"
      },
      {
        "title": "Analytics Account Manager"
      },
      {
        "title": "Technical SEO Associate"
      },
      {
        "title": "SEO Account Manager"
      },
      {
        "title": "PPC Associate"
      },
      {
        "title": "PPC Account Manager"
      },
      {
        "title": "SEO Associate"
      }
    ],
    "state": "pa",
    "county": "philadelphia"
  },
  {
    "company": "Saturn Infotech Inc",
    "url": "http://www.saturninfotech.com/pagedetail.php?contentid=22&mid=21",
    "webSiteUrl": "http://www.saturninfotech.com/",
    "address": "1120 Welsh Road, Suite 110, North Wales, Pennsylvania 19454",
    "geo": {
      "latitude": 40.227722,
      "longitude": -75.261352
    },
    "positions": [
      {
        "title": "Entry Level Hyperion Developers"
      },
      {
        "title": "Junior C/C++ or MATLAB Developers"
      },
      {
        "title": "Fresh Graduates - Systems Analyst / Programmer Analyst"
      }
    ],
    "state": "pa",
    "county": "montgomery"
  },
  {
    "company": "Savana, Inc.",
    "url": "http://savanainc.com/company/careers/",
    "webSiteUrl": "http://savanainc.com/",
    "address": "920 Cassatt Road, Suite 220, Berwyn, PA 19312",
    "geo": {
      "latitude": 40.06229052,
      "longitude": -75.45604168
    },
    "positions": [
      {
        "title": "Business Analyst"
      }
    ],
    "state": "pa",
    "county": "chester"
  },
  {
    "company": "Scala",
    "url": "http://join.scala.com/careers/",
    "webSiteUrl": "http://scala.com/",
    "address": "7 Great Valley Pkwy #300, Malvern, PA 19355",
    "geo": {
      "latitude": 40.0632385406,
      "longitude": -75.5384306945
    },
    "positions": [
      {
        "title": "Programmer"
      }
    ],
    "state": "pa",
    "county": "chester"
  },
  {
    "company": "Sidecar",
    "url": "https://hello.getsidecar.com/careers-listing/",
    "webSiteUrl": "https://hello.getsidecar.com/",
    "address": "114 S. 13th Street, 3rd Floor, Philadelphia, PA 19107",
    "geo": {
      "latitude": 39.949836,
      "longitude": -75.161949
    },
    "positions": [
      {
        "title": "Application Support Developer"
      },
      {
        "title": "Infrastructure Support Developer"
      },
      {
        "title": "Product Manager"
      },
      {
        "title": "Technical Project Manager"
      },
      {
        "title": "Sr. Product Analyst"
      },
      {
        "title": "Sr. DevOps Engineer"
      },
      {
        "title": "Systems Administrator"
      },
      {
        "title": "Sr. Data Scientist"
      },
      {
        "title": "Sr. Front End Engineer"
      },
      {
        "title": "Sr. Product Engineer"
      },
      {
        "title": "Content Marketing Manager"
      }
    ],
    "state": "pa",
    "county": "philadelphia"
  },
  {
    "company": "SnipSnap",
    "url": "http://www.snipsnap.it/snipsnap-jobs/",
    "webSiteUrl": "http://www.snipsnap.it/",
    "address": "109 South 13th Street, Philadelphia, PA 19107",
    "geo": {
      "latitude": 39.950196,
      "longitude": -75.161868
    },
    "positions": [
      {
        "title": "Product Designer (Android)"
      }
    ],
    "state": "pa",
    "county": "philadelphia"
  },
  {
    "company": "SpectiCast",
    "url": "http://www.specticast.com/en/contents/careers",
    "webSiteUrl": "http://www.specticast.com/",
    "address": "210 West Rittenhouse Square, Suite 400, Philadelphia, PA 19103",
    "geo": {
      "latitude": 39.9500479286,
      "longitude": -75.1728245
    },
    "positions": [],
    "state": "pa",
    "county": "philadelphia"
  },
  {
    "company": "Stuzo",
    "url": "http://www.stuzo.com/careers/",
    "webSiteUrl": "http://www.stuzo.com/",
    "address": "211 North 13th Street, Suite 802, Philadelphia, PA 19107",
    "geo": {
      "latitude": 39.956513,
      "longitude": -75.160248
    },
    "positions": [
      {
        "title": "Technical Project Manager"
      }
    ],
    "state": "pa",
    "county": "philadelphia"
  },
  {
    "company": "SunGuard Financial",
    "url": "http://financialsystemsjobs.sungard.com/search/advanced-search/ASCategory/-1/SPostedDate/-1/ASCountry/-1/ASState/-1/ASCity/Philadelphia/ASLocation/-1/ASCompanyName/-1/ASCustom1/-1/ASCustom2/-1/ASCustom3/-1/ASCustom4/-1/ASCustom5/-1/SIsRadius/false/ASCityStateZipcode/-1/ASDistance/-1/ASLatitude/-1/ASLongitude/-1/ASDistanceType/-1",
    "webSiteUrl": "https://www.sungard.com/",
    "address": "601 Walnut St, Philadelphia, PA 19106",
    "geo": {
      "latitude": 39.94827,
      "longitude": -75.151171
    },
    "positions": [
      {
        "title": "Sr. Android developer"
      },
      {
        "title": "Sr. Java developer"
      },
      {
        "title": "Ruby on Rails Web Developer"
      }
    ],
    "state": "pa",
    "county": "philadelphia"
  },
  {
    "company": "Susquehanna International Group",
    "url": "https://careers.sig.com/",
    "webSiteUrl": "http://sig.com/",
    "address": "401 City Avenue, Bala Cynwyd, PA 19004",
    "geo": {
      "latitude": 40.008582,
      "longitude": -75.213322
    },
    "positions": [
      {
        "title": "Junior Technical Support Analyst"
      },
      {
        "title": "QlikView Developer"
      },
      {
        "title": "Software Engineering Internship Program"
      },
      {
        "title": "Junior Systems Administrator (Data Center)"
      },
      {
        "title": "Software Developer"
      },
      {
        "title": "Software Developer - Middleware"
      },
      {
        "title": "Business Analyst/Project Manager"
      },
      {
        "title": "FPGA Engineer"
      },
      {
        "title": "Technical Support Analyst"
      },
      {
        "title": "Telecom Client Support Analyst"
      },
      {
        "title": "Senior VMware Engineer"
      },
      {
        "title": "Software Developer - Clearing and Positions"
      },
      {
        "title": "Software Engineer - Production Engineering"
      },
      {
        "title": "Software Developer - C++"
      },
      {
        "title": "Messaging Engineer (Middleware)"
      },
      {
        "title": "Linux Engineer"
      },
      {
        "title": "Technical Support Analyst (Trading Floor)"
      },
      {
        "title": "Technology Associate: Software Engineering Development Program"
      },
      {
        "title": "Junior FPGA Engineer"
      },
      {
        "title": "Software Developer- Operations"
      },
      {
        "title": "Software Developer - SOT Services"
      },
      {
        "title": "Technology Co-op"
      },
      {
        "title": "Junior Technical Support Engineer"
      },
      {
        "title": "Junior Telecom Client Support Analyst"
      },
      {
        "title": "Systems & Network Administrator (Data Center)"
      },
      {
        "title": "Technical Business Analyst"
      },
      {
        "title": "Software Developer â Proprietary Trading Services"
      },
      {
        "title": "Software Developer - Instruments Team"
      },
      {
        "title": "Software Developer- TORQ"
      },
      {
        "title": "Quantitative Developer - Backtesting and Research Computing "
      }
    ],
    "state": "pa",
    "county": "montgomery"
  },
  {
    "company": "Swift Capital",
    "url": "https://www.swiftcapital.com/Careers",
    "webSiteUrl": "http://www.swiftcapital.com/",
    "address": "501 Carr Rd #301, Wilmington, DE 19809",
    "geo": {
      "latitude": 39.776617,
      "longitude": -75.513209
    },
    "positions": [
      {
        "title": "UX/UI Designer/Developer"
      },
      {
        "title": "Software Quality Assurance (QA) Engineer"
      },
      {
        "title": "Senior C#.Net Software Development Engineer "
      }
    ],
    "state": "de",
    "county": "new castle"
  },
  {
    "company": "Syapse",
    "url": "http://www.syapse.com/about/careers/",
    "webSiteUrl": "http://www.syapse.com/",
    "address": "Philadelphia, PA",
    "geo": {
      "latitude": 40.07231,
      "longitude": -75.203371
    },
    "positions": [
      {
        "title": "Customer Solutions Software Engineer"
      }
    ],
    "state": "pa",
    "county": "philadelphia"
  },
  {
    "company": "Technically Media",
    "url": "http://technicallymedia.com/careers",
    "webSiteUrl": "http://technicallymedia.com/",
    "address": "4040 Locust Street, Philadelphia, Pa.",
    "geo": {
      "latitude": 39.9531008333,
      "longitude": -75.2038928333
    },
    "positions": [],
    "state": "pa",
    "county": "philadelphia"
  },
  {
    "company": "The Wilson Concept",
    "url": "http://thewilsonconcept.com/careers/",
    "webSiteUrl": "http://thewilsonconcept.com/",
    "address": "109 South 13th Street, Philadelphia PA 19107",
    "geo": {
      "latitude": 39.950196,
      "longitude": -75.161868
    },
    "positions": [],
    "state": "pa",
    "county": "philadelphia"
  },
  {
    "company": "TherapyNotes",
    "url": "https://www.pliner.com/careers/",
    "webSiteUrl": "https://www.therapynotes.com/",
    "address": "630 Fitzwatertown Rd, Suite A4, Willow Grove, PA, 19090",
    "geo": {
      "latitude": 40.157568,
      "longitude": -75.120882
    },
    "positions": [
      {
        "title": "Quality Assurance Engineer"
      },
      {
        "title": "Senior Software Developer"
      },
      {
        "title": "Software Developer"
      }
    ],
    "state": "pa",
    "county": "montgomery"
  },
  {
    "company": "Think Brownstone",
    "url": "https://www.thinkbrownstone.com/careers/",
    "webSiteUrl": "https://www.thinkbrownstone.com/",
    "address": "111 South 15th Street, Mezzanine, Philadelphia, PA 19102",
    "geo": {
      "latitude": 39.950745,
      "longitude": -75.165716
    },
    "positions": [
      {
        "title": "Experience Designer - Contractor"
      },
      {
        "title": "Senior Project Manager"
      },
      {
        "title": "UX & Visual Design Contractors"
      },
      {
        "title": "UX Designer"
      },
      {
        "title": "Web Developer"
      },
      {
        "title": "Web Developer (Contract)"
      }
    ],
    "state": "pa",
    "county": "philadelphia"
  },
  {
    "company": "Thomson Reuters",
    "url": "https://toc.taleo.net/careersection/2/moresearch.ftl?iniurl.src=CWS-10140",
    "webSiteUrl": "http://thomsonreuters.com/",
    "address": "1500 Spring Garen Street, Philadelphia, PA 19130",
    "geo": {
      "latitude": 39.962595,
      "longitude": -75.163112
    },
    "positions": [
      {
        "title": "QA Engineer"
      },
      {
        "title": "Senior Director, Sales Training & Development"
      },
      {
        "title": "Technology Consultant"
      }
    ],
    "state": "pa",
    "county": "philadelphia"
  },
  {
    "company": "Thoughtbot",
    "url": "https://thoughtbot.com/jobs",
    "webSiteUrl": "https://thoughtbot.com/",
    "address": "2401 Walnut St, Suite 102, Philadelphia, PA 19103",
    "geo": {
      "latitude": 39.95109,
      "longitude": -75.179508
    },
    "positions": [
      {
        "title": "Development Director, Mobile"
      }
    ],
    "state": "pa",
    "county": "philadelphia"
  },
  {
    "company": "Ticketleap",
    "url": "http://ticketleap.theresumator.com/",
    "webSiteUrl": "http://ticketleap.com/",
    "address": "2401 Walnut Street, Suite 502, Philadelphia, PA 19103",
    "geo": {
      "latitude": 39.95124,
      "longitude": -75.179508
    },
    "positions": [
      {
        "title": "Software Engineer"
      }
    ],
    "state": "pa",
    "county": "philadelphia"
  },
  {
    "company": "Tivipley",
    "type": [
      "Startup"
    ],
    "url": "https://angel.co/tivipley/jobs",
    "webSiteUrl": "http://www.tivipley.com/",
    "address": "2600 w. Legiht Ave., Philadelphia, PA 19100",
    "geo": {
      "latitude": 39.996284,
      "longitude": -75.174103
    },
    "positions": [
      {
        "title": "Web Developer"
      }
    ],
    "state": "pa",
    "county": "philadelphia"
  },
  {
    "company": "Tonic Design Co",
    "url": "http://www.tonicdesign.com/jobs/",
    "webSiteUrl": "http://www.tonicdesign.com/",
    "address": "201 S State St; Suite 2B Newtown PA 18940",
    "geo": {
      "latitude": 40.226642,
      "longitude": -74.937063
    },
    "positions": [
      {
        "title": ".NET/C# Developer"
      },
      {
        "title": "Experience Design Lead"
      },
      {
        "title": "Mobile Developers - Android & iOS"
      },
      {
        "title": "Senior User Experience Designer (UX)"
      }
    ],
    "state": "pa",
    "county": "bucks"
  },
  {
    "company": "Transmogrify",
    "url": "http://xmog.com/jobs",
    "webSiteUrl": "http://xmog.com/",
    "address": "112 Fayette St., Conshohocken, PA 19428",
    "geo": {
      "latitude": 40.0739984286,
      "longitude": -75.306129102
    },
    "positions": [
      {
        "title": "Front-End / UI Developer"
      },
      {
        "title": "iOS Developer"
      },
      {
        "title": "User Interface / Visual Designer"
      }
    ],
    "state": "pa",
    "county": "montgomery"
  },
  {
    "company": "Tuva Labs Inc",
    "url": "https://tuvalabs.com/jobs/",
    "webSiteUrl": "https://tuvalabs.com/",
    "address": "Philadelphia, PA",
    "geo": {
      "latitude": 39.952584,
      "longitude": -75.165222
    },
    "positions": [],
    "state": "pa",
    "county": "philadelphia"
  },
  {
    "company": "URBN",
    "url": "http://urbn.com/career/",
    "webSiteUrl": "http://urbn.com/",
    "address": "5000 South Broad St, Philadelphia, PA 19112-1495",
    "geo": {
      "latitude": 39.889369,
      "longitude": -75.176112
    },
    "positions": [
      {
        "title": "Senior Network Engineer"
      },
      {
        "title": "DevOps Engineer"
      },
      {
        "title": "Production Support Manager - Ecommerce"
      },
      {
        "title": "Microsoft Engineer"
      },
      {
        "title": "Store Systems Operations Manager"
      },
      {
        "title": "Project Manager - Reporting Systems"
      },
      {
        "title": "IT CRM Business Analyst"
      },
      {
        "title": "Project Manager"
      },
      {
        "title": "Linux Administration Store Technology"
      },
      {
        "title": "ETL Engineer"
      },
      {
        "title": "OMS Business Analyst"
      },
      {
        "title": "Project Manager"
      },
      {
        "title": "Data Scientist"
      }
    ],
    "state": "pa",
    "county": "philadelphia"
  },
  {
    "company": "University of Pennsylvania Human Resources Department",
    "url": "https://www.hr.upenn.edu/career",
    "webSiteUrl": "https://www.hr.upenn.edu/",
    "address": "3624 Market Street, Suite 1SD, Philadelphia, PA 19104",
    "geo": {
      "latitude": 39.955912,
      "longitude": -75.195443
    },
    "positions": [],
    "state": "pa",
    "county": "philadelphia"
  },
  {
    "company": "Velora Studios",
    "url": "http://www.velorastudios.com/jobs",
    "webSiteUrl": "http://www.velorastudios.com/",
    "address": "Philadelphia",
    "geo": {
      "latitude": 40.07231,
      "longitude": -75.203371
    },
    "positions": [
      {
        "title": "Ruby on Rails Lead Programmer"
      },
      {
        "title": "Web Developer"
      },
      {
        "title": "Project Manager"
      }
    ],
    "state": "pa",
    "county": "philadelphia"
  },
  {
    "company": "Veris Associates, Inc., dba VerisVisalign",
    "url": "http://www.verisvisalign.com/company/careers/career-opportunities/",
    "webSiteUrl": "http://www.verisvisalign.com/",
    "address": "920 S. Broad Street, Lansdale, PA 19446",
    "geo": {
      "latitude": 40.229151,
      "longitude": -75.296258
    },
    "positions": [
      {
        "title": "SHAREPOINT ARCHITECTS"
      },
      {
        "title": "SHAREPOINT DEVELOPERS"
      },
      {
        "title": "PROJECT MANAGER"
      },
      {
        "title": "HELP DESK/SERVICE DESK ANALYST"
      },
      {
        "title": "APPLICATION PACKAGER"
      }
    ],
    "state": "pa",
    "county": "montgomery"
  },
  {
    "company": "Vistar Media",
    "url": "http://www.vistarmedia.com/careers",
    "webSiteUrl": "http://www.vistarmedia.com/",
    "address": "332 S Smedley St, Philadelphia, PA 19103",
    "geo": {
      "latitude": 39.9471276977,
      "longitude": -75.1686654651
    },
    "positions": [
      {
        "title": "Software Engineer"
      }
    ],
    "state": "pa",
    "county": "philadelphia"
  },
  {
    "company": "WebLinc Corp.",
    "url": "http://www.weblinc.com/company/careers/",
    "webSiteUrl": "http://www.weblinc.com/",
    "address": "22 South 3rd Street Second Floor Philadelphia, PA 19106",
    "geo": {
      "latitude": 39.9497525,
      "longitude": -75.1457715
    },
    "positions": [
      {
        "title": ".NET Lead Developer"
      },
      {
        "title": "Sr. Visual Designer"
      },
      {
        "title": "Ruby On Rails Developer"
      },
      {
        "title": "Front-End Developer"
      },
      {
        "title": "User Experience Designer"
      },
      {
        "title": "Sr. Project Manager"
      },
      {
        "title": "Project Manager"
      }
    ],
    "state": "pa",
    "county": "philadelphia"
  },
  {
    "company": "Wildbit",
    "url": "http://wildbit.com/jobs",
    "webSiteUrl": "http://wildbit.com/",
    "address": "22 N 3rd St, Philadelphia, PA 19106",
    "geo": {
      "latitude": 39.9508689,
      "longitude": -75.1457279
    },
    "positions": [
      {
        "title": "Quality Assurance Engineer"
      }
    ],
    "state": "pa",
    "county": "philadelphia"
  },
  {
    "company": "Willis Towers Watson",
    "url": "https://willis-towers-watson.jobs.net/search?facetcitystate=philadelphia%2Cpa",
    "webSiteUrl": "https://www.willistowerswatson.com/",
    "address": "1500 Market St #22E, Philadelphia, PA 19102",
    "geo": {
      "latitude": 39.9377613,
      "longitude": -75.1771446
    },
    "positions": [
      {
        "title": "Software Developer (.NET)"
      }
    ],
    "state": "pa",
    "county": "philadelphia"
  },
  {
    "company": "Wilson Legal Solutions Inc",
    "url": "http://www.wilsonlegalsol.com/careers.html",
    "webSiteUrl": "http://www.wilsonlegalsol.com/",
    "address": "3817 West Chester Pike, Newtown Square, PA 19073",
    "geo": {
      "latitude": 39.986286,
      "longitude": -75.408623
    },
    "positions": [
      {
        "title": ".Net Developer"
      }
    ],
    "state": "pa",
    "county": "delaware"
  },
  {
    "company": "Wingspan Technology",
    "url": "http://www.wingspan.com/career_open_positions/",
    "webSiteUrl": "http://www.wingspan.com/",
    "address": "460 Norristown Road Suite 200, Blue Bell, PA 19422",
    "geo": {
      "latitude": 40.133626,
      "longitude": -75.255467
    },
    "positions": [
      {
        "title": "Software Engineer"
      },
      {
        "title": "Project Manager"
      },
      {
        "title": "DevOps Engineer"
      }
    ],
    "state": "pa",
    "county": "montgomery"
  },
  {
    "company": "WizeHive",
    "url": "https://review.wizehive.com/voting/posting",
    "webSiteUrl": "http://wizehive.com/",
    "address": "441 E. Hector Street, Conshohocken, PA 19428",
    "geo": {
      "latitude": 40.073628,
      "longitude": -75.297755
    },
    "positions": [
      {
        "title": "Implementation Specialist"
      },
      {
        "title": "Jr. Implementation Specialist"
      }
    ],
    "state": "pa",
    "county": "montgomery"
  },
  {
    "company": "YIKES Inc",
    "url": "http://www.yikesinc.com/company/join-team/",
    "webSiteUrl": "http://www.yikesinc.com/",
    "address": "204 East Girard Avenue, Philadelphia, PA, 19125",
    "geo": {
      "latitude": 39.968964,
      "longitude": -75.133331
    },
    "positions": [],
    "state": "pa",
    "county": "philadelphia"
  },
  {
    "company": "Zivtech",
    "url": "https://www.zivtech.com/about/employment",
    "webSiteUrl": "https://www.zivtech.com/",
    "address": "The Philadelphia Building 1315 Walnut St, Suite 1500, Philadelphia, PA, 19107",
    "geo": {
      "latitude": 39.9491672,
      "longitude": -75.1628294
    },
    "positions": [
      {
        "title": "Drupal Developers and Themers"
      }
    ],
    "state": "pa",
    "county": "philadelphia"
  },
  {
    "company": "Zonoff",
    "url": "https://zonoff.com/our-story/careers/",
    "webSiteUrl": "https://zonoff.com/",
    "address": "70 E. Swedesford Rd., Suite 120, Malvern, PA 19460",
    "geo": {
      "latitude": 40.051395125,
      "longitude": -75.5336614375
    },
    "positions": [
      {
        "title": "UI Designer"
      },
      {
        "title": "Architect"
      },
      {
        "title": "Cloud Services Developer"
      },
      {
        "title": "DevOps Engineer"
      },
      {
        "title": "Javascript UI Developer"
      },
      {
        "title": "Linux Application Developer"
      },
      {
        "title": "Solutions Support Engineer"
      },
      {
        "title": "QA Test Engineer"
      },
      {
        "title": "Data Analytics Lead Contributor"
      },
      {
        "title": "Director, Content and Brand Marketing"
      }
    ],
    "state": "pa",
    "county": "chester"
  },
  {
    "company": "Zoomer",
    "url": "https://jobs.lever.co/zoomer",
    "webSiteUrl": "http://www.zoomerdelivery.com/",
    "address": "Philadelphia, PA",
    "geo": {
      "latitude": 40.07231,
      "longitude": -75.203371
    },
    "positions": [
      {
        "title": "Backend Engineer"
      }
    ],
    "state": "pa",
    "county": "philadelphia"
  },
  {
    "company": "Zoomi",
    "url": "http://www.zoomiinc.com/jobs/",
    "webSiteUrl": "http://www.zoomiinc.com/",
    "address": "101 Lindenwood Drive, Suite 400, Malvern PA 19355",
    "geo": {
      "latitude": 40.050203,
      "longitude": -75.527085
    },
    "positions": [
      {
        "title": "ALGORITHM ENGINEER"
      }
    ],
    "state": "pa",
    "county": "chester"
  },
  {
    "company": "Zuppler",
    "url": "http://www.zupplerworks.com/careers.html",
    "webSiteUrl": "http://www.zupplerworks.com/",
    "address": "730 East Elm St, Suite 200, Conshohocken, PA 19428",
    "geo": {
      "latitude": 40.0738422857,
      "longitude": -75.2935051429
    },
    "positions": [
      {
        "title": "Operations Project Manager"
      }
    ],
    "state": "pa",
    "county": "montgomery"
  },
  {
    "company": "baseklas",
    "url": "http://baseklas.com/jobs/",
    "webSiteUrl": "http://baseklas.com/",
    "address": "128 Chestnut Street, Suite 304, Philadelphia PA 19106",
    "geo": {
      "latitude": 39.948286125,
      "longitude": -75.143379125
    },
    "positions": [
      {
        "title": "Groovy designer needed!"
      }
    ],
    "state": "pa",
    "county": "philadelphia"
  },
  {
    "company": "eCity Interactive",
    "url": "http://ecityinteractive.com/us/careers/",
    "webSiteUrl": "http://ecityinteractive.com/",
    "address": "136 S 15th St, Philadelphia, PA 19102",
    "geo": {
      "latitude": 39.949955,
      "longitude": -75.165874
    },
    "positions": [
      {
        "title": "Senior Developer w/Sys Ops Experience"
      },
      {
        "title": "Junior Interactive Designer"
      }
    ],
    "state": "pa",
    "county": "philadelphia"
  },
  {
    "company": "eMoney Advisor",
    "url": "http://emoneyadvisor.theresumator.com/apply",
    "webSiteUrl": "http://emoneyadvisor.com/",
    "address": "1001 E Hector St, Conshohocken, PA 19428",
    "geo": {
      "latitude": 40.07517,
      "longitude": -75.289722
    },
    "positions": [
      {
        "title": "Billing Specialist"
      },
      {
        "title": "Client Communications Specialist"
      },
      {
        "title": "Client Support Specialist"
      },
      {
        "title": "Data Services Support Specialist"
      },
      {
        "title": "Senior Information Security Analyst-Risk Management"
      },
      {
        "title": "Senior Systems Automation Engineer"
      },
      {
        "title": "Software Engineer"
      },
      {
        "title": "Software Engineer-Data Services"
      },
      {
        "title": "Staff Accountant"
      }
    ],
    "state": "pa",
    "county": "montgomery"
  },
  {
    "company": "iPipeline",
    "url": "https://ipipeline-orspartners.icims.com/jobs/intro?hashed=-435738742&mobile=false&width=889&height=500&bga=true&needsRedirect=false&jan1offset=-300&jun1offset=-240",
    "webSiteUrl": "http://www.ipipeline.com/",
    "address": "222 Valley Creek Boulevard, Suite 300, Exton, PA 19341",
    "geo": {
      "latitude": 40.03875,
      "longitude": -75.597482
    },
    "positions": [
      {
        "title": "Application Support Engineer"
      },
      {
        "title": "Actuarial Developer"
      },
      {
        "title": "Application Developer"
      },
      {
        "title": "Application Support Analyst"
      }
    ],
    "state": "pa",
    "county": "chester"
  },
  {
    "company": "roundCorner",
    "url": "http://www.roundcorner.com/job-postings/",
    "webSiteUrl": "http://www.roundcorner.com/",
    "address": "16 E. Lancaster Ave, Ardmore, PA 19003",
    "geo": {
      "latitude": 40.0074736667,
      "longitude": -75.2902143333
    },
    "positions": [
      {
        "title": "Data Architect"
      },
      {
        "title": "Data Migration Specialist"
      },
      {
        "title": "Senior Project Manager"
      }
    ],
    "state": "pa",
    "county": "montgomery"
  }
]
